"lat","lng","Address"
54.970858,-1.610086,"Longhorns, 10 Mosley Street, , Newcastle upon Tyne, Tyne & Wear, NE1 1DE"
54.970858,-1.610086,"PORTOFINO , 12A, MOSLEY STREET, NEWCASTLE UPON TYNE, TYNE AND WEAR, NE1 1DE"
54.970448,-1.611121,"Nadon Thai Newcastle, 32-34, Mosley Street, Newcastle upon Tyne, Tyne & Wear, NE1 1DF"
54.971016,-1.612535,"Market Shaker, 32-34 Cloth Market, , Newcastle upon Tyne, Tyne & Wear, NE1 1EE"
54.971016,-1.612535,"CURRY BAZAR (NE) LTD, 26 Cloth Market, , Newcastle upon Tyne, Tyne & Wear, NE1 1EE"
54.97154,-1.612845,"BEEHIVE, High Bridge, , Newcastle upon Tyne, Tyne & Wear, NE1 1EN"
54.97154,-1.612845,"Yolo Townhouse, 14 High Bridge, , Newcastle upon Tyne, Tyne & Wear, NE1 1EN"
54.97154,-1.612845,"Kaltur Restaurant Ltd, 8 High Bridge, , Newcastle upon Tyne, Tyne & Wear, NE1 1EN"
54.97181,-1.612827,"Laneway & Co, 17-19, High Bridge, Newcastle upon Tyne, Tyne & Wear, NE1 1EW"
54.97181,-1.612827,"PLEASED TO MEET YOU, 41-51, High Bridge, Newcastle upon Tyne, Tyne & Wear, NE1 1EW"
54.969718,-1.613268,"COOP Chicken House, 25 Collingwood Street, , Newcastle upon Tyne, Tyne & Wear, NE1 1JE"
54.969718,-1.613268,"The Continental, 29 Collingwood Street, , Newcastle upon Tyne, Tyne & Wear, NE1 1JE"
54.970027,-1.612341,"subway, Floor 1, Collingwood House, 3 Collingwood Street, Newcastle upon Tyne, Tyne & Wear, NE1 1JW"
54.969796,-1.610328,"COLONEL PORTERS EMPORIUM, Ground Floor, Milburn House, Dean Street, Newcastle Upon Tyne, Tyne & Wear, NE1 1LF"
54.970488,-1.609809,"SURTEES HOTEL, 12-18, Dean Street, Newcastle upon Tyne, Tyne & Wear, NE1 1PG"
54.970488,-1.609809,"Soju & Gogi Korean BBQ Restaurant , 46 Dean Street, , Newcastle upon Tyne, Tyne & Wear, NE1 1PG"
54.970488,-1.609809,"Topolino , 44 Dean Street, , Newcastle upon Tyne, Tyne & Wear, NE1 1PG"
54.970183,-1.609999,"Kaltur Restaurant Ltd, 19 Dean Street, , Newcastle upon Tyne, Tyne & Wear, NE1 1PQ"
54.969646,-1.611079,"El Torero, Side, , Newcastle upon Tyne, Tyne & Wear, NE1 1PR"
54.96881,-1.610341,"The Maven Restaurant, Castle Garth, , Newcastle upon Tyne, Tyne & Wear, NE1 1RQ"
54.969483,-1.613005,"The French Quarter, Arch 6, Westgate Road, Newcastle upon Tyne, Tyne & Wear, NE1 1SA"
54.969197,-1.613461,"Sleeperz Hotel (Newcastle), 15 Westgate Road, , Newcastle, , NE1 1SE"
54.970177,-1.614417,"Okana (formerly Union Rooms), 48 Westgate Road, , Newcastle upon Tyne, Tyne & Wear, NE1 1TT"
54.970699,-1.613978,"DOG AND SCONE, 22 Pudding Chare, , Newcastle upon Tyne, Tyne & Wear, NE1 1UE"
54.970817,-1.614351,"ds restaurant ltd (puccini), 29 Pudding Chare, , Newcastle upon Tyne, Tyne & Wear, NE1 1UF"
54.970817,-1.614351,"Raj Cuisine Ltd, 31 Pudding Chare, , Newcastle upon Tyne, Tyne & Wear, NE1 1UF"
54.970968,-1.613772,"MEAT STACK BIGG MARKET, 41-43 Groat Market, , Newcastle upon Tyne, , NE1 1UG"
54.971352,-1.613656,"Hibou Blanc, 6 Bigg Market, , Newcastle upon Tyne, Tyne & Wear, NE1 1UW"
54.971352,-1.613656,"Simply Greek Tavern, 2-4, Bigg Market, Newcastle upon Tyne, Tyne & Wear, NE1 1UW"
54.971352,-1.613656,"Kafeneon, 8 Bigg Market, , Newcastle upon Tyne, Tyne & Wear, NE1 1UW"
54.972032,-1.590639,"Hotel Du Vin Newcastle, Allan House, City Road, Newcastle upon Tyne, Tyne & Wear, NE1 2BE"
54.970541,-1.604448,"Silk Room Restaurant, Trinity Gardens, Pandon, Newcastle upon Tyne, Tyne and Wear, NE1 2HH"
54.970541,-1.604448,"Cafe Twenty One Newcastle Ltd, Pandon, , Newcastle upon Tyne, Tyne & Wear, NE1 2HH"
54.97059,-1.602995,"Aneesa's Buffet Restaurant, Forster Street, , Newcastle upon Tyne, Tyne & Wear, NE1 2NH"
54.974867,-1.594657,"THALI TRAY, Arch 2, Stepney Bank, Newcastle upon Tyne, Tyne & Wear, NE1 2NP"
54.974867,-1.594657,"arch 2 brewpub and kitchen, Arch 2, Stepney Bank, Newcastle upon Tyne, Tyne & Wear, NE1 2NP"
54.974863,-1.596141,"The Tanners Arms, The Tanners Arms, 1 Byker Bridge, Newcastle upon Tyne, , NE1 2NS"
54.974931,-1.592375,"THE CLUNY, The Cluny, 36 Lime Street, Newcastle upon Tyne, Tyne & Wear, NE1 2PQ"
54.975451,-1.594573,"Under The Bridge, Unit 1, 1 Stepney Road, Newcastle upon Tyne, Tyne & Wear, NE1 2PZ"
54.974168,-1.602837,"moji, 158 New Bridge Street, , Newcastle upon Tyne, Tyne & Wear, NE1 2ST"
54.974242,-1.604162,"1901 Caffe Deli (Manors- Near City Centre), 132-140, New Bridge Street, Newcastle upon Tyne, Tyne & Wear, NE1 2SZ"
54.96877,-1.607152,"Aveika Restaurant, Aveika Restaurant and Late Bar, 10-15 Sandhill, Newcastle upon Tyne, Tyne & Wear, NE1 3AF"
54.96877,-1.607152,"Unos Trattoria, 18 Sandhill, , Newcastle upon Tyne, Tyne & Wear, NE1 3AF"
54.96877,-1.607152,"Aveika Restaurant, Aveika Restaurant and Late Bar, 10-15 Sandhill, Newcastle upon Tyne, Tyne & Wear, NE1 3AF"
54.969089,-1.605011,"Harvey's Cafe and Deli, Three Indian Kings House, 31 Quayside, Newcastle Upon Tyne, Tyne and Wear, NE1 3DE"
54.969089,-1.605011,"Charts, 63 Quayside, , Newcastle upon Tyne, Tyne & Wear, NE1 3DE"
54.970228,-1.602342,"Tomahawk Steakhouse Newcastle, 95 Quayside, , Newcastle, , NE1 3DH"
54.969635,-1.604256,"Head of Steam (Quayside), 11-17, Broad Chare, Newcastle, , NE1 3DQ"
54.969635,-1.604256,"Poterhouse Newcastle Ltd, 25 Broad Chare, , Newcastle upon Tyne, Tyne & Wear, NE1 3DQ"
54.970984,-1.599307,"Gusto Italian, The Quayside, , Newcastle Upon Tyne, , NE1 3DX"
54.970984,-1.599307,"Malmaison Newcastle, 104 Quayside, , Newcastle Upon Tyne, , NE1 3DX"
54.969479,-1.608772,"Babucho, Tyne House, 26 Side, Newcastle upon Tyne, Tyne & Wear, NE1 3JA"
54.969479,-1.608772,"PRIMA NOVA LTD, 40-46, Side, Newcastle upon Tyne, Tyne & Wear, NE1 3JA"
54.96919,-1.608416,"ROUTE, 35 Side, , Newcastle upon Tyne, Tyne & Wear, NE1 3JE"
54.96919,-1.608416,"Simla Restaurant, 39 Side, , Newcastle upon Tyne, Tyne & Wear, NE1 3JE"
54.96919,-1.608416,"Bangrak Thai, 1-3 Side, , Newcastle Upon Tyne, , NE1 3JE"
54.968756,-1.608214,"THE REDHOUSE, 32-34, Sandhill, Newcastle upon Tyne, Tyne & Wear, NE1 3JF"
54.968756,-1.608214,"Rasika Indian Restaurant, 27 Sandhill, , Newcastle upon Tyne, Tyne and Wear, NE1 3JF"
54.967664,-1.614741,"deli central, Arch 9, Forth Street, Newcastle upon Tyne, Tyne & Wear, NE1 3NZ"
54.967882,-1.624001,"The Tipsy Cow , 85-89, Blandford Street, Newcastle upon Tyne, Tyne & Wear, NE1 3PZ"
54.967882,-1.624001,"The Geordie Stottie, 91-95, Blandford Street, Newcastle upon Tyne, Tyne & Wear, NE1 3PZ"
54.968318,-1.60833,"DH BENVENUTO LTD, Watergate Buildings 57-60, Sandhill, Newcastle upon Tyne, Tyne & Wear, NE1 3RG"
54.966961,-1.617634,"Crowne Plaza Newcastle - Hawthorns Restaurant, Stephenson House, Hawthorn Square, Newcastle upon Tyne, Tyne & Wear, NE1 3SA"
54.966748,-1.618292,"Sachins Restaraunt , Forth Banks, , Newcastle upon Tyne, Tyne & Wear, NE1 3SG"
54.966748,-1.618292,"MANTRA THAI LIMITED, 29 Forth Banks, , Newcastle upon Tyne, Tyne & Wear, NE1 3SG"
54.96941,-1.607848,"The Bridge Tavern, 7 Akenside Hill, , Newcastle upon Tyne, Tyne & Wear, NE1 3UF"
54.9693,-1.606928,"Dobson and Parnell, 19-21, Queen Street, Newcastle upon Tyne, Tyne & Wear, NE1 3UG"
54.9693,-1.606928,"URY RESTAURANT - NEWCASTLE  , 27 Queen Street, , Newcastle upon Tyne, Tyne & Wear, NE1 3UG"
54.9693,-1.606928,"Rani Indian Restaurant, Rani, 2 Queen Street, Quayside, Newcastle Upon Tyne, Tyne and Wear, NE1 3UG"
54.969533,-1.606288,"SABATINI, Sabatini, 25 King Street, Newcastle upon Tyne, Tyne & Wear, NE1 3UQ"
54.970276,-1.61948,"St Sushi Limited, 89 Westgate Road, , Newcastle upon Tyne, Tyne & Wear, NE1 4AE"
54.970588,-1.621539,"NUDO SUSHI BOX LTD , 147, NORTHUMBERLAND STREET, NEWCASTLE UPON TYNE, TYNE AND WEAR, NE1 4AG"
54.967603,-1.623801,"Lane7 Newcastle, 80-90, St. James Boulevard, Newcastle upon Tyne, Tyne & Wear, NE1 4BN"
54.969364,-1.62077,"THE SIAM ZAA THAI RESTAURANT, 4 Waterloo Street, , Newcastle upon Tyne, Tyne & Wear, NE1 4DG"
54.968694,-1.622104,"Akbar's Newcastle, Unit 1, City Quadrant, 11 Waterloo Square, Newcastle upon Tyne, Tyne & Wear, NE1 4DP"
54.967758,-1.622344,"Persia, 14 Marlborough Crescent, , Newcastle upon Tyne, Tyne & Wear, NE1 4EE"
54.968593,-1.621292,"Dixy Chicken, 20 Westmorland Road, , Newcastle upon Tyne, Tyne & Wear, NE1 4EG"
54.96868,-1.620682,"Wafi lounge and restaurnt , 48 Clayton Street West, , Newcastle upon Tyne, Tyne & Wear, NE1 4EX"
54.96868,-1.620682,"The Dog and Parrot, 52 Clayton Street West, , Newcastle upon Tyne, Tyne & Wear, NE1 4EX"
54.970172,-1.624196,"vegano, 33A Blandford Square, , Newcastle upon Tyne, Tyne & Wear, NE1 4HZ"
54.974997,-1.61753,"Soho Korean & Japanese Street Food, 14 Leazes Park Road, , Newcastle upon Tyne, Tyne & Wear, NE1 4PF"
54.974997,-1.61753,"NEW ERA (NE) LTD, 6-10, Leazes Park Road, Newcastle upon Tyne, Tyne & Wear, NE1 4PF"
54.974997,-1.61753,"El Coto, 21 Leazes Park Road, , Newcastle upon Tyne, Tyne & Wear, NE1 4PF"
54.975896,-1.618237,"Red mezze, 36 Leazes Park Road, , Newcastle upon Tyne, Tyne & Wear, NE1 4PG"
54.975896,-1.618237,"Bar Loco, Bar Loco, 22-24 Leazes Park Road, Newcastle upon Tyne, Tyne & Wear, NE1 4PG"
54.975531,-1.618821,"OAK COFFEE SHOP, BARKER & STONEHOUSE, LEAZES PARK ROAD, NEWCASTLE UPON TYNE, , NE1 4PQ"
54.973517,-1.621868,"Shark Club Gastro Bar, Gallowgate, , Newcastle upon Tyne, Tyne & Wear, NE1 4SD"
54.975152,-1.619041,"Infusion Newcastle Ltd, Unit 1, Strawberry Place, Newcastle upon Tyne, Tyne and wear, NE1 4SF"
54.973938,-1.618133,"La Yuan, 7-9, Gallowgate, Newcastle upon Tyne, Tyne & Wear, NE1 4SG"
54.973938,-1.618133,"Chicken Cottage, 43 Gallowgate, , Newcastle upon Tyne, Tyne & Wear, NE1 4SG"
54.973938,-1.618133,"New Canton Kitchen , 41-43 Gallowgate, , Newcastle Upon Tyne, Tyne and Wear, NE1 4SG"
54.973938,-1.618133,"Bealim House, 17-25, Gallowgate, Newcastle upon Tyne, Tyne & Wear, NE1 4SG"
54.970661,-1.619521,"Manjaros Newcastle, Manjaros, Cross Street, Newcastle, , NE1 4XE"
54.971804,-1.619388,"Blackfriars Restaurant, Blackfriars, , Newcastle upon Tyne, Tyne & Wear, NE1 4XN"
54.972595,-1.620143,"Red Diner, 38-42, Stowell Street, Newcastle upon Tyne, Tyne & Wear, NE1 4XQ"
54.972595,-1.620143,"master restaurant, 44-50, Stowell Street, Newcastle upon Tyne, Tyne & Wear, NE1 4XQ"
54.972595,-1.620143,"DOJO JAPANESE RESTAURANT, 26-28, Stowell Street, Newcastle upon Tyne, Tyne & Wear, NE1 4XQ"
54.972595,-1.620143,"King Neptune restaurant, Parkside, 34 Stowell Street, Newcastle upon Tyne, Tyne & Wear, NE1 4XQ"
54.972595,-1.620143,"AMAYSIA, 18 Stowell Street, , Newcastle upon Tyne, Tyne & Wear, NE1 4XQ"
54.972595,-1.620143,"Spot White , Spot White, 14-18 Stowell Street, Newcastle upon Tyne, , NE1 4XQ"
54.972595,-1.620143,"SKYLICIOUS LIMITED, 14 Stowell Street, , Newcastle upon Tyne, Tyne & Wear, NE1 4XQ"
54.972228,-1.620133,"Landmark Oriental restaurant , Landmark Oriental, Q park , Stowell street , Newcastle upon tyne, , NE1 4YB"
54.972228,-1.620133,"Chinatown Express, 63-65 St. Andrew Street, , Newcastle upon Tyne, , NE1 4YB"
54.973298,-1.614593,"MOKASAN LTD, 7 Nelson Street, , Newcastle upon Tyne, Tyne & Wear, NE1 5AN"
54.969396,-1.617408,"The Hudson, C/O The County Hotel, Neville Street, Newcastle , Tyne & Wear, NE1 5DF"
54.969396,-1.617408,"The Hudson, Neville Street, , Newcastle upon Tyne, Tyne & Wear, NE1 5DF"
54.969396,-1.617408,"GUNNER TAVERN, Gunner House, Neville Street, Newcastle upon Tyne, Tyne & Wear, NE1 5DF"
54.968973,-1.61654,"Centurion Bar, Central Station Neville Street, , Newcastle upon Tyne, Tyne & Wear, NE1 5DG"
54.969131,-1.615289,"Royal Station Hotel, Neville Street, , Newcastle upon Tyne, Tyne & Wear, NE1 5DH"
54.968874,-1.617069,"Destination 1850, Destination 1850,Newcastle Central, Neville Street, Newcastle upon Tyne, Tyne & Wear, NE1 5DL"
54.969719,-1.616642,"CHICKALICIOUS , 17 Grainger Street, , Newcastle upon Tyne, Tyne & Wear, NE1 5DQ"
54.969719,-1.616642,"Zapatista Burrito Bar, 9 Grainger Street, , Newcastle upon Tyne, Tyne & Wear, NE1 5DQ"
54.969645,-1.618643,"pink lane coffee, 1 Pink Lane, , Newcastle upon Tyne, Tyne & Wear, NE1 5DW"
54.969146,-1.620116,"osmanli turkish  restaurant , 32 Clayton Street West, , Newcastle upon Tyne, Tyne & Wear, NE1 5DZ"
54.969637,-1.619158,"Latif Restaurant Limited, 1a Clarendon House, Clayton Street West, Newcastle upon Tyne, Tyne & Wear, NE1 5EE"
54.969521,-1.619222,"The Town Wall, Bewick Street, , Newcastle upon Tyne, Tyne & Wear, NE1 5EF"
54.969634,-1.615938,"CENTRAL OVEN AND SHAKER, Central Oven and Shaker, 8 Neville Street, Newcastle upon Tyne, Tyne & Wear, NE1 5EN"
54.969634,-1.615938,"Newcastle Tap, Newcastle Tap, Baron House, 4 Neville Street, Newcastle upon Tyne, Tyne & Wear, NE1 5EN"
54.970856,-1.615895,"MARK TONEY, 53 Grainger Street, , Newcastle upon Tyne, Tyne & Wear, NE1 5JE"
54.970856,-1.615895,"Super Natural Restaurant, Maybrook House, 27 Grainger Street, Newcastle upon Tyne, Tyne & Wear, NE1 5JE"
54.971683,-1.615249,"McDONALD'S 299, 85 Grainger Street, , Newcastle upon Tyne, Tyne & Wear, NE1 5JF"
54.970943,-1.615128,"Yo Yo Noodle, 54-57, Grainger Street, Newcastle, , NE1 5JG"
54.971831,-1.614464,"Taco Bell, 84 Grainger Street, , Newcastle upon Tyne, Tyne & Wear, NE1 5JQ"
54.971831,-1.614464,"TJ Hughes Newcastle, 86-92, Grainger Street, Newcastle upon Tyne, Tyne & Wear, NE1 5JQ"
54.971001,-1.618489,"Kaspas Newcastle , 100-102, Clayton Street, Newcastle upon Tyne, Tyne & Wear, NE1 5PG"
54.972877,-1.615548,"olive and bean , 17-19 clayton street , 17-19 Clayton Street, Newcastle upon Tyne, Tyne & Wear, NE1 5PN"
54.971446,-1.617126,"My Delhi, 87A CLAYTON STREET, , NEWCASTLE UPON TYNE, , NE1 5PY"
54.970892,-1.618193,"Meeple Perk, 89 Clayton Street, , Newcastle upon Tyne, Tyne & Wear, NE1 5PZ"
54.973228,-1.615031,"The Coffee Lounge, Unit G, Grainger Arcade, Newcastle upon Tyne, Tyne & Wear, NE1 5QE"
54.973228,-1.615031,"Eats Cafe Limited, UNIT F, GRAINGER MARKET, GRAINGER ARCADE , NEWCASTLE UPON TYNE , NE1 5QE"
54.972685,-1.614659,"Acropolis street food Grainger market , Unit 12-13, Grainger Market, Newcastle upon Tyne, Tyne & Wear, NE1 5QG"
54.972785,-1.614799,"Cafe One 2 One, 118-124, Grainger Market, Newcastle upon Tyne, Tyne & Wear, NE1 5QN"
54.97276,-1.614754,"Redheads Mac 'N' Cheese Ltd, Unit 49-50, Grainger Market, Newcastle upon Tyne, Tyne & Wear, NE1 5QQ"
54.971439,-1.615686,"eden Newcastle, The Gate, Newgate Street, Newcastle Upon Tyne, , NE1 5RE"
54.971439,-1.615686,"subway, 9 Newgate Street, , Newcastle upon Tyne, Tyne & Wear, NE1 5RE"
54.971439,-1.615686,"Maldron Hotel Newcastle, Maldron Hotel Newcastle, 17 Newgate St, Newcastle upon Tyne, , NE1 5RE"
54.972012,-1.617183,"Point Blank Shooting, Vacant Retail Unit, Newgate Street, Newcastle upon Tyne, Tyne & Wear, NE1 5RF"
54.972244,-1.616681,"JUNSTERIK LTD, 104-108, Newgate Street, Newcastle upon Tyne, Tyne & Wear, NE1 5RQ"
54.972244,-1.616681,"KFC, 52 Newgate Street, , Newcastle Upon Tyne, , NE1 5RQ"
54.972975,-1.618312,"Mr Mulligans Newcastle, 117 Newgate Street, , Newcastle upon Tyne, Tyne & Wear, NE1 5RZ"
54.972975,-1.618312,"Zaap Thai Street Food, Zaap, 117 Newgate Street, Newcastle upon Tyne, Tyne & Wear, NE1 5RZ"
54.973455,-1.618856,"SWEET DREAMS DESSERT CAFE LTD, 60-62, St. Andrews Street, Newcastle upon Tyne, Tyne & Wear, NE1 5SF"
54.972331,-1.618383,"Aspers Newcastle Limited, The Gate, Newgate Street, Newcastle upon Tyne, Tyne & Wear, NE1 5TG"
54.972331,-1.618383,"The Mayfair Pub & Kitchen, G11 the Gate, Newgate Street, Newcastle upon Tyne, Tyne & Wear, NE1 5TG"
54.972331,-1.618383,"The Wonderbar, Wonderbar, The Gate, Newgate Street, Newcastle Upon Tyne, Tyne & Wear, NE1 5TG"
54.971279,-1.618377,"Breadpoint, Unit 13 Low Friar Street, , Newcastle upon Tyne, Tyne & Wear, NE1 5UE"
54.971279,-1.618377,"NUDO LEISURE LTD, 54-56, Low Friar Street, Newcastle upon Tyne, Tyne & Wear, NE1 5UE"
54.971279,-1.618377,"Buffet Box Ltd, 39 Low Friar Street, , Newcastle upon Tyne, Tyne & Wear, NE1 5UE"
54.971478,-1.618703,"The Canny Goat, 8 Monk Street, , Newcastle upon Tyne, Tyne & Wear, NE1 5XD"
54.971478,-1.618703,"S & L (NE) LTD, 1, Taylors Court, 1 Monk Street, Newcastle upon Tyne, Tyne & Wear, NE1 5XD"
54.970248,-1.616963,"Hotel Indigo Newcastle - Marco Pierre White Steakhouse Bar & Grill, 2-8 Fenkle Street, , Newcastle, , NE1 5XU"
54.97139,-1.610831,"Pizza Punks , Gainsborough House 34-40, Grey Street, Newcastle upon Tyne, Tyne & Wear, NE1 6AE"
54.97139,-1.610831,"Leila Lily's, 2-12 Grey Street, , Newcastle upon Tyne, , NE1 6AE"
54.97139,-1.610831,"Dacantus, 30-32, Grey Street, Newcastle upon Tyne, Tyne & Wear, NE1 6AE"
54.973977,-1.611225,"Eatali, The Stack, Pilgrim Street, Newcastle upon Tyne, Tyne & Wear, NE1 6AP"
54.972585,-1.611395,"Fat Hippo Newcastle, 2-6, Shakespeare Street, Newcastle upon Tyne, Tyne & Wear, NE1 6AQ"
54.972585,-1.611395,"LADY GREYS, 20 Shakespeare Street, , Newcastle upon Tyne, Tyne & Wear, NE1 6AQ"
54.97168,-1.608766,"Bar 52, 55 Degrees North, Pilgrim Street, Newcastle, , NE1 6BJ"
54.97168,-1.608766,"Purple Peacock, 55 Degrees North, Pilgrim Street, Newcastle, , NE1 6BJ"
54.971392,-1.608566,"Zucchini Pasta Bar, 55 Degrees North, Pilgrim Street, Newcastle upon Tyne, Tyne & Wear, NE1 6BL"
54.972398,-1.611337,"Pani's cafe, 61-63, High Bridge, Newcastle upon Tyne, Tyne & Wear, NE1 6BX"
54.972398,-1.611337,"STREET FOOD HIGHBRIDGE LIMITED, 69-75, High Bridge, Newcastle upon Tyne, Tyne & Wear, NE1 6BX"
54.971472,-1.611687,"Barluga Grey Street, 35 Grey Street, , Newcastle upon Tyne, Tyne & Wear, NE1 6EE"
54.972364,-1.612475,"The Muddler, 69 Grey Street, , Newcastle upon Tyne, Tyne & Wear, NE1 6EF"
54.973186,-1.613063,"The Naked Deli, 97 Grey Street, , Newcastle upon Tyne, Tyne & Wear, NE1 6EG"
54.972742,-1.612721,"Lola Jeans Newcastle, 1-3, Market Street, Newcastle upon Tyne, Tyne & Wear, NE1 6JE"
54.97375,-1.612605,"THE CHARLES GREY, 118 Grey Street, , Newcastle upon Tyne, Tyne & Wear, NE1 6JG"
54.972928,-1.611954,"dAt bAr, 11 Market Street, , Newcastle upon Tyne, Tyne & Wear, NE1 6JN"
54.973558,-1.612136,"Beeronomy Limited, Grainger Chambers 3-5, Hood Street, Newcastle upon Tyne, Tyne & Wear, NE1 6JQ"
54.973685,-1.611887,"Northern Counties Club, 11 Hood Street, , Newcastle upon Tyne, Tyne & Wear, NE1 6LH"
54.974213,-1.61121,"Manhua Cha, Unit 15. The Stack, Pilgrim Street, Newcastle Upon Tyne, , NE1 6PT"
54.973608,-1.610995,"Stack Newcastle, Stack Pilgrim Street, , Newcastle upon Tyne, , NE1 6QE"
54.973608,-1.610995,"ZEAN (NE) LTD , 43 Pilgrim Street, , Newcastle upon Tyne, Tyne & Wear, NE1 6QE"
54.973608,-1.610995,"Stixs (korean fried chicken) , Stacks unit 39, Pilgrims street, , Newcastle upon Tyne , , NE1 6QE"
54.973608,-1.610995,"Sushi Me Rollin', Unit 49 - Stack Newcastle, Pilgrim Street, Newcastle upon Tyne, , NE1 6QE"
54.973608,-1.610995,"Texas Smoker, Unit 36, STACK, PILGRIM STREET, NEWCASTLE UPON TYNE , , NE1 6QE"
54.973801,-1.611761,"Hatch 76, STACK Newcastle, Pilgrim Street, Newcastle Upon Tyne, , NE1 6QG"
54.973801,-1.611761,"Hullabaloo, STACK Newcastle, Pilgrim Street, Newcastle Upon Tyne, , NE1 6QG"
54.972026,-1.610776,"HORTICULTURE, HORTICULTURE (1-3), MARKET LANE, NEWCASTLE UPON TYNE, TYNE ND WEAR, NE1 6QQ"
54.971883,-1.610514,"DON VITOS, 86 Pilgrim Street, , Newcastle upon Tyne, Tyne & Wear, NE1 6SG"
54.971883,-1.610514,"Intermezzo , 82-84, Pilgrim Street, Newcastle upon Tyne, Tyne & Wear, NE1 6SG"
54.972946,-1.608363,"Flat Caps Coffee, Tru Knit House 9-11, Carliol Square, Newcastle upon Tyne, Tyne & Wear, NE1 6UF"
54.976797,-1.613479,"KFC, 107-109 Northumberland Street, , Newcastle Upon Tyne, , NE1 7AG"
54.976797,-1.613479,"Eat4less, 125 , Northumberland Street,  Newcastle upon Tyne , , NE1 7AG"
54.974209,-1.613379,"Banyan, Newcastle, 3 Monument Mall, Northumberland Street, Newcastle upon Tyne, Tyne & Wear, NE1 7AL"
54.973926,-1.614741,"The Alchemist Newcastle, Unit 5, Greys Quarter, Intu Eldon Square, Newcastle upon Tyne, Tyne & Wear, NE1 7AP"
54.973926,-1.614741,"UM INTERNATIONAL LTD, Unit 13, Greys Quarter, Intu Eldon Square, Newcastle upon Tyne, Tyne & Wear, NE1 7AP"
54.973926,-1.614741,"Tapas Revolution Newcastle, Unit 3, Greys Quarter, Intu Eldon Square, Newcastle upon Tyne, Tyne & Wear, NE1 7AP"
54.973926,-1.614741,"Georges Great British Kitchen, Unit 9, Greys Quarter, Intu Eldon Square, Newcastle upon Tyne, Tyne & Wear, NE1 7AP"
54.973926,-1.614741,"Chaophraya, Unit 15, Greys Quarter, Intu Eldon Square, Newcastle upon Tyne, Tyne & Wear, NE1 7AP"
54.973926,-1.614741,"Chatime, Unit K3 Grey's Quarter, Eldon Square, Newcastle, , NE1 7AP"
54.976036,-1.613598,"Fuego, 39 , Northumberland Street, Newcastle Upon Tyne, , NE1 7AS"
54.976036,-1.613598,"Patio, 39, Northumberland Street, Newcastle Upon Tyne, , NE1 7AS"
54.976036,-1.613598,"Mason and Rye, 39, Northumberland Street, Newcastle Upon Tyne, , NE1 7AS"
54.976036,-1.613598,"Terrace, 39, Northumberland Street, Newcastle Upon Tyne, , NE1 7AS"
54.976036,-1.613598,"International Set, 39, Northumberland Street, Newcastle Upon Tyne, , NE1 7AS"
54.975731,-1.613945,"The Purple Bear, The Purple Bear, Prudhoe Chare, Newcastle, , NE1 7AT"
54.975843,-1.612397,"McDonalds Northumberland Street, Bradburn House 64-68, Northumberland Street, Newcastle upon Tyne, Tyne & Wear, NE1 7DF"
54.977319,-1.613133,"MELI CAFE, 142 Northumberland Street, , Newcastle upon Tyne, Tyne & Wear, NE1 7DQ"
54.974588,-1.616672,"Smashburger, Unit S1, Greys Quarter, Eldon Square, Newcastle, , NE1 7JB"
54.974588,-1.616672,"CrepeAffaire Newcastle, 8 Lower Level, Eldon Square, Northumberland Street, Newcastle, , NE1 7JB"
54.977367,-1.614007,"shijo, Unit 4, The Hub, Haymarket, Newcastle upon Tyne, Tyne & Wear, NE1 7PF"
54.977695,-1.612504,"QIAOCHU CATERING MANAGEMENT LTD, 8 St. Marys Place, , Newcastle upon Tyne, Tyne & Wear, NE1 7PG"
54.977695,-1.612504,"Chinabowl , 5 St. Marys Place, , Newcastle upon Tyne, Tyne & Wear, NE1 7PG"
54.977695,-1.612504,"Bubble Cha, 7 St. Marys Place, , Newcastle upon Tyne, Tyne & Wear, NE1 7PG"
54.979341,-1.613067,"The Teahouse, 1 Eldon Place, , Newcastle upon Tyne, Tyne & Wear, NE1 7RD"
54.97582,-1.616412,"Cream Curls, 67-69, Percy Street, Newcastle upon Tyne, Tyne & Wear, NE1 7RN"
54.976436,-1.615858,"subway, 93 Percy Street, , Newcastle upon Tyne, Tyne & Wear, NE1 7RW"
54.976436,-1.615858,"Mark Toney, 91 Percy Street, , Newcastle upon Tyne, Tyne & Wear, NE1 7RW"
54.976436,-1.615858,"HAOWEI (NE) LTD, 91 Percy Street, , Newcastle upon Tyne, Tyne & Wear, NE1 7RW"
54.977359,-1.614927,"Anyone Coffee, 1 Grand Hotel Buildings, Percy Street, Newcastle upon Tyne, Tyne & Wear, NE1 7RY"
54.977359,-1.614927,"The Hotspur, The Hotspur, 103 Percy Street, Newcastle Upon Tyne, , NE1 7RY"
54.974953,-1.609297,"Totally Delicious, Laing Art Gallery, Laing Art Gallery, New Bridge Street, Newcastle upon Tyne, , NE1 8AG"
54.974915,-1.608719,"Journey Cafe, Journey Cafe, 7-9 Higham House, New Bridge Street West, Newcastle upon Tyne, Tyne and Wear, NE1 8AN"
54.974992,-1.610437,"Cafe at Newcastle City Library, Cafe at City Library, 33 New Bridge Street West, Newcastle upon Tyne, Tyne & Wear, NE1 8AX"
54.974852,-1.611407,"Coffee Trader, Coffee Trader and Plaza Cafe,Queens, Northumberland Place, Newcastle upon Tyne, Tyne & Wear, NE1 8ED"
54.97706,-1.611415,"Wok Inn , 10a, Northumberland Road, Newcastle upon Tyne, Tyne & Wear, NE1 8JF"
54.97706,-1.611415,"Pacific House, Pacific House, 12-22 Northumberland Road, Newcastle upon Tyne, Tyne & Wear, NE1 8JF"
54.97706,-1.611415,"City Tavern, 10 Northumberland Road, , Newcastle upon Tyne, Tyne & Wear, NE1 8JF"
54.977314,-1.612053,"The little dumpling house , 25 Ridley Place, , Newcastle upon Tyne, Tyne & Wear, NE1 8JN"
54.977314,-1.612053,"The Social Cafe Bar, Ground Floor, 27 Ridley Place, Newcastle upon Tyne, Tyne & Wear, NE1 8JN"
54.977314,-1.612053,"subway, 17 Ridley Place, , Newcastle upon Tyne, Tyne & Wear, NE1 8JN"
54.977047,-1.612073,"Zapatista Burrito Bar, 28 Ridley Place, , Newcastle upon Tyne, Tyne & Wear, NE1 8JW"
54.954186,-1.577532,"AL BAIT , 7 Coxon Terrace, , Gateshead, Tyne & Wear, NE10 0AQ"
54.95475,-1.579106,"Saji's restaurant, Noel Terrace Sunderland Road, , Gateshead, Tyne & Wear, NE10 0AR"
54.953792,-1.559833,"KFC, Abbotsford Rd, Felling, Gateshead, , NE10 0AZ"
54.952625,-1.565045,"All Day Dine, Design Works, William Street, Gateshead, Tyne & Wear, NE10 0JP"
54.941666,-1.516226,"Olivia's Kitchen Ltd, 1 Follingsby Avenue, , Gateshead, Tyne & Wear, NE10 8HQ"
54.939861,-1.532669,"Nine and Dine Limited, Heworth Golf Club,Heworth Golf Cour, Leam Lane, Felling, Tyne & Wear, NE10 8XY"
54.953291,-1.502563,"The Lakeside Inn, East Fellgate Farm, Wardley, Gateshead, Tyne & Wear, NE10 8YD"
54.939834,-1.519011,"Mister Twisters, Unit 15e, Follingsby Close, Gateshead, Tyne & Wear, NE10 8YG"
54.943274,-1.505262,"Redfox Coffeeshop, High House Farm, Wardley, Gateshead, Tyne & Wear, NE10 8YS"
54.952453,-1.569887,"The Pantry, 18 Gosforth Street, , Gateshead, Tyne & Wear, NE10 9LS"
54.949768,-1.570818,"Felling Bingo, Felling Bingo, Victoria Square, Felling, Gateshead, NE10 9LX"
54.940642,-1.574134,"Sutherlands, sutherlands Stone Street, Windy Nook, Gateshead, tyne &wear, NE10 9RY"
54.923762,-1.619385,"GJK (Durham) Ltd T/A Bells Fish & Chips, Unit 23, Retail World, Gateshead, Tyne & Wear, NE11 0BD"
54.943151,-1.624166,"subway, Unit 7, Maingate, Kingsway North, Gateshead, Tyne & Wear, NE11 0BE"
54.904952,-1.618677,"Giuseppe’s Italian Bistro , 3 Hadrian House, Kibblesworth, Gateshead, Tyne & Wear, NE11 0XE"
54.956465,-1.640426,"Tudor rose, Residential Accommodation,The Tudor, Collingwood Terrace, Gateshead, Tyne & Wear, NE11 9DU"
54.953232,-1.656522,"Ramside Event Catering, Ramside Event Catering, Lancaster Road, Dunston, Gateshead, NE11 9JR"
54.957508,-1.670098,"JETSCO LTD, 22-26 Upper Qube, Metrocentre, GATESHEAD, TYNE AND WEAR, NE11 9XG"
54.960022,-1.675142,"McDonalds Cameron Park, Metro Retail Park, , Gateshead, Tyne & Wear, NE11 9XU"
54.957922,-1.666941,"Greek Gyros, 80-82, Russell Way Intu Metrocentre, Gateshead, Tyne & Wear, NE11 9XX"
54.957922,-1.666941,"Beckleberrys, 50 Russell Way Intu Metrocentre, , Gateshead, Tyne & Wear, NE11 9XX"
54.958217,-1.669765,"Muffin Break Metrocentre, 42 Garden Walk Intu Metrocentre, , Gateshead, Tyne & Wear, NE11 9XY"
54.958217,-1.669765,"McDonalds Metro Yellow, 2A, Metro Centre, Whickham, Tyne & Wear, NE11 9XY"
54.958217,-1.669765,"Namco Funscape, Unit 244 Garden Walk, Metrocentre, Gateshead, Tyne & Wear, NE11 9XY"
54.958217,-1.669765,"Big Lukes Metrocentre Limited, Lower Yellow Mall, intu, Metrocentre, Gateshead, Tyne and Wear, NE11 9XY"
54.95802,-1.669751,"Subway, 54 Garden Walk Metrocentre, , Gateshead, , NE11 9XZ"
54.95802,-1.669751,"Thaikhun, Unit R9 Qube, Metrocentre, Gateshead, , NE11 9XZ"
54.95802,-1.669751,"Angry Birds Adverture Golf, 56 Garden Walk, Intu MetroCentre, Gateshead, Tyne & Wear, NE11 9XZ"
54.955881,-1.668929,"FATTOUSH LOUNGE METRO LIMITED, Unit 1 , 128 Intu Metrocentre , Gateshead, , NE11 9YG"
54.956483,-1.668908,"McDonalds Metro Green, 72-74, Cameron Walk Intu Metrocentre, Gateshead, Tyne & Wear, NE11 9YR"
54.957629,-1.667431,"KFC, UNIT 179 and 180 Metro Centre, Blue Quadrant, Gateshead, Tyne & Wear, NE11 9YZ"
55.032326,-1.561115,"Killingworth Arms, Flat Above, Killingworth Arms, , Killingworth, Tyne & Wear, NE12 6BL"
55.036795,-1.564211,"KFC, The Killingworth Centre, , Newcastle upon Tyne, Tyne & Wear, NE12 6HA"
55.03255,-1.580967,"The Station, Killingworth, , Newcastle upon Tyne, Tyne & Wear, NE12 6RA"
55.036453,-1.566485,"McDONALD'S 1185, The Killingworth Centre, , Newcastle upon Tyne, Tyne & Wear, NE12 6YT"
55.036453,-1.566485,"subway, Unit 34, The Killingworth Centre, Newcastle upon Tyne, Tyne & Wear, NE12 6YT"
55.027333,-1.56907,"Sambuca Forest Hall Ltd, 74-82 Great Lime Road, , Newcastle Upon Tyne, Tyne and Wear, NE12 7AL"
55.021706,-1.566221,"Taste of India, 9 Station Road North, , Newcastle upon Tyne, Tyne & Wear, NE12 7AR"
55.010949,-1.571138,"CASA ANTONIO, Front Street, Benton, Newcastle upon Tyne, Tyne & Wear, NE12 8AE"
55.019134,-1.568142,"AMICI RESTAURANT, 93-95, Station Road, Newcastle upon Tyne, Tyne & Wear, NE12 8AQ"
55.020207,-1.582128,"Eat, 3 Dukes Walk, Quorum Business Park Benton Lane, Newcastle upon Tyne, Tyne & Wear, NE12 8BW"
55.020207,-1.582128,"BENTO BOX (NE) LTD, 1 DUKES WALK, QUORUM BUSINESS PARK BENTON , NEWCASTLE UPON TYNE, TYNE AND WEAR, NE12 8BW"
55.01932,-1.58819,"Olivia's Kitchen Ltd, Balliol Business Park Benton Lane, , Newcastle upon Tyne, Tyne & Wear, NE12 8EW"
55.011296,-1.591024,"subway, Unit 1b, The Boulevard, West Farm Avenue, Newcastle upon Tyne, Tyne & Wear, NE12 8GA"
55.019748,-1.537323,"McDONALDS'S 1332, Whitley Road, Benton, Newcastle upon Tyne, Tyne & Wear, NE12 9SJ"
55.02445,-1.530996,"The wheatsheaf , The wheatsheaf , Whitley road, Newcastle upon Tyne , Tyne and Wear , NE12 9SU"
55.016517,-1.550669,"Jump 360 Newcastle, Bellway Industrial Estate Whitley, Longbenton, Newcastle upon Tyne, Tyne & Wear, NE12 9SW"
55.020508,-1.543274,"Round the Twist (NE) Limited, Unit 28, North Tyne Industrial Estate Whitle, Newcastle upon Tyne, Tyne & Wear, NE12 9SZ"
55.066589,-1.634365,"Holiday Inn Seaton Burn, Holiday Inn Newcastle, Great North Road, Seaton Burn , Tyne & Wear, NE13 6BP"
55.073744,-1.69071,"Horton Grange Country House Hotel , Horton Grange Country House Hotel, , Berwick Hill Road, Seaton Burn, NE13 6BU"
55.073744,-1.69071,"Plantsplus Garden Centre, Berwick Hill Road, Seaton Burn, Newcastle upon Tyne, Northumberland, NE13 6BU"
55.087367,-1.703767,"The Cheese Farm, Green Lane, Seaton Burn, Newcastle upon Tyne, Northumberland, NE13 6BZ"
55.048256,-1.624517,"THE TREVELLERS REST, Flat Above, Travellers Rest, Great North Road, Wideopen, Tyne & Wear, NE13 6LN"
55.05432,-1.68399,"White Swan Inn, White Swan Inn, Prestwick Road, Dinnington, , NE13 7AG"
55.046644,-1.644189,"sevenoaks vending and catering, Unit 3, payless for storage , brunswick ind est,, NEWCASTLE UPON TYNE, tyne and wear, NE13 7BA"
55.036913,-1.710037,"Doubletree by Hilton Newcastle International Airport Hotel, Newcastle International Airport Woo, , Newcastle upon Tyne, Tyne & Wear, NE13 8BZ"
55.038713,-1.713953,"Britannia Hotel Newcastle Airport, Newcastle International Airport Woo, , Newcastle upon Tyne, Tyne & Wear, NE13 8DJ"
54.997511,-1.793809,"Three Tuns, 1 Military Road, Heddon-on-the-Wall, Newcastle upon Tyne, Northumberland, NE15 0BQ"
54.989197,-1.803697,"Close House Golf Club , Close House Golf Club, Heddon on the Wall, Newcastle upon Tyne, Northumberland, NE15 0HT"
54.988385,-1.853971,"LION & LAMB, LION AND LAMB, , HORSLEY, northumberland, NE15 0NS"
54.973666,-1.704417,"Maximo's Deli, 8 Front Street Bells Close, , Newcastle upon Tyne, Tyne & Wear, NE15 6XY"
54.97382,-1.693792,"Kitchi's Kitchen, Kitchi's Kitchen, 4 Denton Road, Newcastle upon Tyne, Tyne and Wear, NE15 7BD"
54.982686,-1.685615,"Solomons Restaurant, Thorntree Farm, West Road, Newcastle upon Tyne, Tyne & Wear, NE15 7EX"
54.97908,-1.688175,"La Famiglia, 257 Whickham View, , Newcastle upon Tyne, Tyne & Wear, NE15 7HP"
54.97908,-1.688175,"The Bindi, 261 Whickham View, , Newcastle Upon Tyne, , NE15 7HP"
54.979046,-1.671582,"Margaret’s cafe , 375 West Road, , Newcastle upon Tyne, Tyne & Wear, NE15 7NL"
54.979166,-1.70083,"Annes kitchen, The Vallum, Moorcroft Road, Newcastle Upon Tyne, , NE15 7RG"
54.990321,-1.733129,"The Percy Arms Walbotttle , Queens Road, Walbottle, Newcastle upon Tyne, Tyne & Wear, NE15 8JB"
54.994107,-1.738293,"The Engine Inn, The Engine Inn, Hawthorn Terrace, newcastle, Newcastle upon tyne, NE15 8JR"
54.98216,-1.74498,"the keelman, Big Lamp Brewery, The Keelman, Grange Road, Newcastle upon Tyne, Tyne & Wear, NE15 8NL"
54.969713,-1.712365,"NU TO GO CATERING SERVICES LTD, Bernicia House, The Waterfront, Goldcrest Way, Newcastle upon Tyne, Tyne & Wear, NE15 8NY"
54.975811,-1.718928,"Reziguli Reheman , 7 Riversdale Court, , Newcastle upon Tyne, Tyne & Wear, NE15 8SG"
54.992962,-1.732518,"Ma’ida , The Old Co-Op Buildings, Hexham Road, Newcastle upon Tyne, Tyne & Wear, NE15 9SR"
54.95358,-1.68665,"Maguires Fish and Chips, Hexham Road, Swalwell, Newcastle upon Tyne, Tyne & Wear, NE16 3AA"
54.952224,-1.68615,"Pedalling squares, Old Derwent Brassworks, Quality Row, Whickham, Tyne & Wear, NE16 3AQ"
54.962719,-1.682972,"GLASSHOUSE (T/A SAMBUCA METRO) LTD, Clasper Way, Swalwell, Newcastle upon Tyne, Tyne & Wear, NE16 3BE"
54.962719,-1.682972,"The Skiff Inn, Clasper Way, Swalwell, Newcastle upon Tyne, Tyne & Wear, NE16 3BE"
54.962719,-1.682972,"KFC, Drive Thru Gateshead Metro, Riverside Way, Swalwell, Gateshead, Tyne and Wear, NE16 3BE"
54.95241,-1.689501,"JASHN , Indian Restaurant, Whickham Bank, Whickham, Tyne & Wear, NE16 3BP"
54.946271,-1.681107,"Chutneys , Ilfracombe House, Back Row, Whickham, Tyne & Wear, NE16 4AB"
54.946216,-1.677313,"Milligans Whickham, 16/17, St Marys Green, Newcastle upon Tyne, , NE16 4DN"
54.946216,-1.677313,"Milligans Whickham Limited, 16-17, St. Marys Green, Newcastle upon Tyne, Tyne & Wear, NE16 4DN"
54.946216,-1.677313,"Amore Whickham Ltd, 31 St. Marys Green, Whickham, Newcastle upon Tyne, Tyne & Wear, NE16 4DN"
54.945744,-1.675366,"SANTANA WHICKHAM LTD, 34-36, Front Street, Newcastle upon Tyne, Tyne & Wear, NE16 4DT"
54.945937,-1.681074,"Jamdani Restaurant Limited, 3-4 The Square, Whickham, Whickham, Tyne & Wear, NE16 4JB"
54.946042,-1.679313,"Gibside Hotel, Gibside Hotel, Front Street, Whickham, Newcastle upon Tyne, Tyne and Wear, NE16 4JG"
54.936685,-1.689017,"The Coachman, The Coachman , Burnthouse Lane, Newcastle upon Tyne, Tyne & Wear, NE16 5AW"
54.938248,-1.693122,"Cafe Lutz ltd, 1-2, The Clavering Centre Oakfield Road, Newcastle upon Tyne, Tyne & Wear, NE16 5BY"
54.899345,-1.677735,"Beamish Park Hotel, Beamish Park Hotel, Beamish Burn Road, Newcastle upon Tyne, Tyne and Wear, NE16 5EG"
54.929789,-1.660732,"CLUB PROSECCO LTD, MARQUIS OF GRANBY, STREETGATE, Newcastle upon Tyne, Tyne and Wear, NE16 5ES"
54.927471,-1.667956,"Sorella Sorella, Sorella Sorella, Streetgate,Sunniside, Newcastle upon Tyne, , NE16 5LE"
54.925051,-1.673067,"Art Cafe at Sidegate Ltd, Sidegate Gallery, Gateshead Road, Sunniside, Gateshead, Tyne and Wear, NE16 5LG"
54.923734,-1.674404,"Oli and Joe's Sunniside, 13 Sun Street, Sunniside, Newcastle upon Tyne, Tyne & Wear, NE16 5LR"
54.889057,-1.742403,"THE OWL & OTTER, The Owl and Otter, Mountsett, Burnopfield, Durham, NE16 6BA"
54.904169,-1.721296,"THE JOINERY, Fir Terrace, Burnopfield, Newcastle upon Tyne, Durham, NE16 6DP"
54.896024,-1.731398,"Hobson hotel , Front Street, Hobson, Newcastle upon Tyne, Durham, NE16 6EE"
54.896024,-1.731398,"Weemacs Cafe & Takeaway, 38 Front Street, Hobson, Newcastle upon Tyne, Durham, NE16 6EE"
55.008992,-1.926366,"The Robin Hood Inn, East Wallhouses, , Newcastle upon Tyne, Northumberland, NE18 0LL"
55.229268,-2.17796,"Weavers Cafe, Weavers Cafe, Otterburn Mill, , Otterburn, Northumberland, NE19 1JT"
55.231226,-2.178629,"The Border Reiver, The Border Reiver, Otterburn, Newcastle Upon Tyne, Northumberland, NE19 1NP"
55.265668,-2.245915,"Redesdale Arms Hotel ltd, Rochester, , Newcastle upon Tyne, Northumberland, NE19 1TA"
55.136874,-1.980702,"kirkharle coffee house, Kirkharle Courtyard, Kirkharle, Newcastle upon Tyne, Northumberland, NE19 2PE"
54.976097,-1.597019,"TYNE MOULDS AND MACHINERY CO LTD t/a THE BISCUIT FACTORY, The Factory Kitchen Floor 1,The Bis, 16 Stoddart Street, Newcastle upon Tyne, Tyne & Wear, NE2 1AN"
54.97651,-1.596189,"Ernest Cafe, 1 Boyd Street, Shieldfield, Newcastle upon Tyne, Tyne & Wear, NE2 1AP"
54.981239,-1.605298,"The Valley Junction 397 Limited, The Old Station, Archibold Terrace, Jesmond Three Sixty, Newcastle upon Tyne, NE2 1DB"
54.981239,-1.605298,"The Holy Hobo, The Holy Hobo, Three, Jesmond Three Sixty, Newcastle upon Tyne, Tyne & Wear, NE2 1DB"
54.981239,-1.605298,"As You Like It, As You Like It, Two, Jesmond Three Sixty, Newcastle upon Tyne, Tyne & Wear, NE2 1DB"
54.985525,-1.59674,"Pizzeria Santana Ltd, 131-133, Jesmond Road, Newcastle upon Tyne, Tyne & Wear, NE2 1JY"
54.985525,-1.59674,"The Punchbowl, 125 Jesmond Road, , Newcastle upon Tyne, Tyne & Wear, NE2 1JY"
54.9871,-1.594724,"Cafebar One, 229 Jesmond Road, , Newcastle upon Tyne, Tyne & Wear, NE2 1LA"
54.98297,-1.596748,"Little Green Ltd , Little Green, 83-89 Goldspink Lane, Newcastle upon Tyne, Tyne & Wear, NE2 1NQ"
54.983374,-1.590589,"The Bluebell, Flat at Blue Bell Hotel, Jesmond Vale, Newcastle upon Tyne, Tyne & Wear, NE2 1PH"
54.983692,-1.602383,"Holiday Inn Newcastle, Jesmond Road, , Newcastle upon Tyne, Tyne & Wear, NE2 1PR"
54.981266,-1.603124,"GEISHA, 133 Sandyford Road, , Newcastle upon Tyne, Tyne & Wear, NE2 1QR"
54.981266,-1.603124,"Cog and Wheel, 131 Sandyford Road, , Newcastle upon Tyne, Tyne & Wear, NE2 1QR"
54.981748,-1.598762,"Aidan's Kitchen, 11-15, Starbeck Avenue, Newcastle upon Tyne, Tyne & Wear, NE2 1RH"
54.976981,-1.600807,"Kimchi Planet, 24 Wretham Place, , Newcastle upon Tyne, Tyne & Wear, NE2 1XU"
54.988098,-1.605841,"Antico Restaurant, 13-15, Osborne Road, Newcastle upon Tyne, Tyne & Wear, NE2 2AE"
54.988098,-1.605841,"Dosa Kitchen LTD, Rear of, 7 Osborne Road, Newcastle upon Tyne, Tyne & Wear, NE2 2AE"
54.988957,-1.604863,"A taste of Persia, 34 Osborne Road, , Newcastle upon Tyne, Tyne & Wear, NE2 2AJ"
54.989906,-1.604446,"Bar blanc t/a Whites Hotel, Blanc, 38-42 Osborne Road, Newcastle upon Tyne, Tyne & Wear, NE2 2AL"
54.989906,-1.604446,"Saray Turkish grill house , Saray Turkish Grill House,Dorcheste, 46 Osborne Road, Newcastle upon Tyne, Tyne & Wear, NE2 2AL"
54.989906,-1.604446,"Quattro, 44 Osborne Road, Jesmond, Newcastle upon Tyne, , NE2 2AL"
54.99166,-1.604258,"Osbornes, 61-73, Osborne Road, Newcastle upon Tyne, Tyne & Wear, NE2 2AN"
54.99166,-1.604258,"Rios Brazilian Steakhouse, 61 Osborne Road, , Newcastle upon Tyne, Tyne & Wear, NE2 2AN"
54.99164,-1.603555,"Jam jar jesmond LTD, 88 Osborne Road, , Newcastle upon Tyne, Tyne & Wear, NE2 2AP"
54.99164,-1.603555,"Carlton Hotel, Spy Bar, 82-86 Osborne Road, Newcastle upon Tyne, Tyne & Wear, NE2 2AP"
54.990958,-1.603906,"The Caledonian Hotel, 64-68, Osborne Road, Newcastle upon Tyne, Tyne & Wear, NE2 2AT"
54.99256,-1.604703,"NUDO SUSHI BOX LTD - JESMOND, 3 Acorn Road, , Newcastle upon Tyne, Tyne & Wear, NE2 2DJ"
54.993462,-1.605726,"1901 Caffe Bistro (Jesmond), St. Georges Terrace, Jesmond, Newcastle upon Tyne, Tyne & Wear, NE2 2DL"
54.991307,-1.597995,"pizzeria francesca, 134-136, Manor House Road, Newcastle upon Tyne, Tyne & Wear, NE2 2NA"
54.991722,-1.606837,"Fat Hippo Jesmond, 35a, St. Georges Terrace, Newcastle upon Tyne, Tyne & Wear, NE2 2SU"
54.994518,-1.604527,"New Kent Hotel, 127 Osborne Road, , Newcastle upon Tyne, Tyne & Wear, NE2 2TB"
54.992898,-1.603652,"CAIRN HOTEL, 97-103, Osborne Road, Newcastle upon Tyne, Tyne & Wear, NE2 2TJ"
54.991807,-1.608585,"Dabbawal Jesmond, 1 Brentwood Mews, , Newcastle upon Tyne, Tyne & Wear, NE2 3DG"
54.991936,-1.609179,"bistro forty six, 46 Brentwood Avenue, Jesmond, Newcastle Upon Tyne, , NE2 3DH"
54.991936,-1.609179,"AVANTI, 52-54, Brentwood Avenue, Newcastle upon Tyne, Tyne & Wear, NE2 3DH"
54.991936,-1.609179,"ARLO cafe bar bistro, 36-38, Brentwood Avenue, Newcastle upon Tyne, Tyne & Wear, NE2 3DH"
54.996173,-1.604996,"The Northumberland Club, North Jesmond Avenue, , Newcastle upon Tyne, , NE2 3JU"
54.984626,-1.627611,"The north terrace, 23-26 North terrace, Claremont Road, Newcastle upon Tyne, , NE2 4AN"
54.98405,-1.630351,"Cosy Dove , 62-64, Hunters Road, Newcastle upon Tyne, Tyne & Wear, NE2 4NA"
54.985925,-1.614847,"Wylam Brewery Tap, Palace of Arts, Exhibition Park Claremont Road, Newcastle upon Tyne, Tyne & Wear, NE2 4PZ"
54.985656,-1.609552,"Country Whey, 8 Clayton Road, , Newcastle upon Tyne, Tyne & Wear, NE2 4RP"
54.985656,-1.609552,"Willis Cafe, 23-25, Clayton Road, Newcastle upon Tyne, Tyne & Wear, NE2 4RP"
54.985184,-1.608774,"Dun Cow at Jesmond, Brandling Village, , Newcastle upon Tyne, Tyne & Wear, NE2 4RS"
55.074966,-1.797981,"Tomahawk Steakhouse Pontleland, Higham Dykes, Milbourne, Newcastle upon Tyne, Northumberland, NE20 0DH"
55.039354,-1.952182,"Matfen Hall Ltd, Matfen Hall, Matfen Village, Matfen, , NE20 0RH"
55.041466,-1.953134,"Matfen Village Store and coffee shop, Matfen, , Newcastle upon Tyne, Northumberland, NE20 0RP"
55.050043,-1.7386,"Jan's Kitchen, 13A Bell Villas, , Ponteland, Newcastle Upon Tyne, NE20 9BD"
55.050043,-1.7386,"NEW RENDEZVOUS, 3-5, Bell Villas, Newcastle upon Tyne, Northumberland, NE20 9BD"
55.050043,-1.7386,"Yolo Ponteland, 9 Bell Villas, Ponteland, Newcastle upon Tyne, Northumberland, NE20 9BD"
55.049923,-1.740043,"FRATELLI, Bell Villas, Ponteland, Newcastle upon Tyne, Northumberland, NE20 9BE"
55.049668,-1.742564,"RIALTOS, 1 Main Street, Ponteland, Newcastle upon Tyne, Northumberland, NE20 9NH"
55.049668,-1.742564,"Ponteland Tandoori, 11a, Main Street, Newcastle upon Tyne, Northumberland, NE20 9NH"
55.049274,-1.74324,"Chinese Harry Ltd, Princess Garden Restaurant, 1-3 Brewery Lane, Ponteland, Northumberland, NE20 9NZ"
55.049274,-1.74324,"Mambos, 1-3, Brewery Lane, Newcastle upon Tyne, Northumberland, NE20 9NZ"
55.050106,-1.745582,"LEMON GRASS DELI, 40 Merton Road, Ponteland, Newcastle upon Tyne, Northumberland, NE20 9PS"
55.03645,-1.764835,"NUMBER9, 9 Broadway, Ponteland, Newcastle upon Tyne, Northumberland, NE20 9PW"
55.050474,-1.745235,"New Mogul Raj, 15-17, Merton Road, Newcastle upon Tyne, Northumberland, NE20 9PY"
55.052328,-1.742751,"The Blackbird Inn, North Road, Ponteland, Newcastle upon Tyne, Northumberland, NE20 9UH"
54.971763,-1.740594,"Michelangelos, Stella Road, , Blaydon-on-Tyne, Tyne & Wear, NE21 4LU"
54.969838,-1.731296,"miji chinese restaurant, miji chinese restaurant, board inn, stella road, blaydon on tyne, , NE21 4LW"
54.954915,-1.724963,"Ristorante Pizzeria Desi , 13 Front Street, , Blaydon-on-Tyne, Tyne & Wear, NE21 4RF"
54.964222,-1.712729,"McDonald's , Shibdon Road, , Blaydon-on-Tyne, Tyne & Wear, NE21 5AE"
54.963884,-1.709471,"Costa Coffee - Blaydon, Unit 1A, Blaydon Shopping Centre, Blaydon on Tyne, , NE21 5BT"
54.967811,-1.698743,"NUDO SUSHI BOX LTD - MONUMENT, Unit 1, Storey Court, Transbritannia Enterprise Park, Blaydon-on-Tyne, Tyne & Wear, NE21 5NH"
54.941868,-1.759143,"THE BLACK HORSE INN, The Black Horse Inn, Barlow Road, Blaydon, Tyne and Wear, NE21 6JU"
54.942814,-1.711757,"Pineapple and bears, Unit 2, Spa Well Road, Blaydon-on-Tyne, Tyne & Wear, NE21 6RT"
54.942814,-1.711757,"PETROS, Spa Well Road, Winlaton Mill, Blaydon-on-Tyne, Tyne & Wear, NE21 6RT"
54.941574,-1.711891,"Cafe Shrub, Land of Oak & Iron Heritage Centre, Spa Well Road, Winlaton Mill, , NE21 6RU"
54.941574,-1.711891,"The Red Kite, Spa Well Road, Winlaton Mill, Blaydon-on-Tyne, Tyne & Wear, NE21 6RU"
55.130781,-1.592659,"The Mustard Seed Coffee House Ltd, 2 Vulcan Place, , Bedlington, Northumberland, NE22 5DN"
55.128403,-1.589138,"LA TORRE RESTAURANT, The Millfield, Millfield Court, Bedlington, Northumberland, NE22 5EN"
55.139097,-1.570299,"SAMBUCA BEDLINGTON SOLE TRADER, 15 Station Road, , Bedlington, Northumberland, NE22 5HB"
55.13139,-1.597515,"Lairds House, 40 Front Street West, , Bedlington, Northumberland, NE22 5UB"
55.13139,-1.597515,"ASHIANNA, 48 Front Street West, , Bedlington, Northumberland, NE22 5UB"
55.102668,-1.605795,"Box Cafe, Unit 3, Atley Way North Nelson Industrial, Cramlington, Northumberland, NE23 1WA"
55.102405,-1.612444,"THE DELI-DINER, Unit 5E Admiral Business Park, Nelson Way, Cramlington, Northumberland, NE23 1WG"
55.095546,-1.584477,"Thyme Bistro, 4 brockwell centre, northumbrian road, cramlington , northumberland, NE23 1XZ"
55.074089,-1.569492,"NVS Northumbria Specialist Emergency Care Hospital, Northumbria Specialist Emergency Ca, Northumbria Way, Cramlington, Northumberland, NE23 6NZ"
55.074089,-1.569492,"Northumbria Specialist Emergency Care Hospital, Northumbria Specialist Emergency Ca, Northumbria Way, Cramlington, Northumberland, NE23 6NZ"
55.086103,-1.584888,"Panuccis Restaurant , Panuccis Restaurant , Smithy square, Cramlington, Northumberland, NE23 6QL"
55.085275,-1.587825,"BETTINI'S ICE CREAM LTD, 6 Dudley Court Manor Walks Shopping, , Cramlington, Northumberland, NE23 6QW"
55.079318,-1.569686,"Moti Jheel Restaurant, 3 Front Street, Klondyke, Cramlington, Northumberland, NE23 6RF"
55.079318,-1.569686,"Bay Leaf Indian Cuisine, Enfield House, Front Street, Cramlington, Northumberland, NE23 6RF"
55.085489,-1.590063,"subway, Unit 4b, South Mall, Craster Court Manor Walks Shopping, Cramlington, Northumberland, NE23 6UT"
55.085489,-1.590063,"Kitchen Cafes, Unit 59 Manor Walks Shopping Centre, Craster Court, Cramlington, , NE23 6UT"
55.085489,-1.590063,"Muffin Break, Craster Court Manor Walks Shopping, , Cramlington, Northumberland, NE23 6UT"
55.086356,-1.585293,"Lal Qila, Dudley Lane, , Cramlington , Northumberland , NE23 6UW"
55.086356,-1.585293,"Mandarin Bay, 4 Old Parish Hall, Dudley Lane, Cramlington, Northumberland, NE23 6UW"
55.084963,-1.590665,"McDONALD'S 354, Forum Way, , Cramlington, Northumberland, NE23 6YD"
55.061104,-1.592975,"Dudley Deli, Dudley Deli-Licious, The Willows, 2 Westfield View, Dudley, Tyne & Wear, NE23 7QE"
55.068705,-1.62719,"Northumberland Catering Ltd, Arcot Lane, Dudley, Cramlington, Northumberland, NE23 7QP"
55.064016,-1.554679,"bagel bunz n bitez, 13 Carrington Close, Seghill, Cramlington, Northumberland, NE23 7TA"
55.127541,-1.508463,"Caffe Ginevra Blyth, Coffee Kiosk, Keel Row, Union Street, Blyth, Northumberland, NE24 1AH"
55.12805,-1.509805,"Hankmarvins, 4 Simpson Street, , Blyth, Northumberland, NE24 1AX"
55.126288,-1.511866,"The Coffee Shop, Unit 2, 79 Waterloo Road, Blyth, Northumberland, NE24 1BU"
55.126476,-1.512426,"SAMBUCA BLYTH LTD, 62 Waterloo Road, , Blyth, Northumberland, NE24 1DG"
55.126619,-1.511422,"Doppio's Coffee House, 52 Waterloo Road, , Blyth, Northumberland, NE24 1DH"
55.127873,-1.514936,"Blyth Community Hospital Catering, Blyth Community Hospital, Thoroton Street, Blyth, Northumberland, NE24 1DX"
55.127873,-1.514936,"NVS Blyth Community Hospital, Blyth Community Hospital, Thoroton Street, Blyth, Northumberland, NE24 1DX"
55.127482,-1.509358,"Once upon a tier , 8 Regent Street, , Blyth, Northumberland, NE24 1LP"
55.127482,-1.509358,"Cafe central, 4 Regent Street, , Blyth, Northumberland, NE24 1LP"
55.127864,-1.510419,"Batty Dimples, 15 Regent Street, , Blyth, Northumberland, NE24 1LQ"
55.143456,-1.519924,"cafe one, 1 West Bridge Street, Cambois, Blyth, Northumberland, NE24 1QP"
55.127343,-1.506097,"Frameworks Art Cafe, 24 Bridge Street, , Blyth, Northumberland, NE24 2BP"
55.126806,-1.500645,"Commissioner's Quay Inn, Commissioner's Quay Inn, Quay Road, Blyth, Northumberland, NE24 3AF"
55.119257,-1.493231,"Caboose, Blyth Boathouse, Quay Road, Blyth, Northumberland, NE24 3PA"
55.110512,-1.510475,"SOUTHBEACH PUB, Fulmar Drive, , Blyth, Northumberland, NE24 3RJ"
55.108092,-1.56748,"THREE HORSE SHOES, Horton, , Blyth, Northumberland, NE24 4HF"
55.126454,-1.562735,"PORKYS , PORKYS, PORKYS FRONT STREET, BLYTH, , NE24 4HW"
55.131996,-1.535322,"KFC, Unit 5b, Blyth Valley Retail Park Cowpen Roa, Blyth, Northumberland, NE24 5TP"
55.072301,-1.525944,"Leo’s coffee lounge , 20 Avenue Road, Seaton Delaval, Whitley Bay, Northumberland, NE25 0DU"
55.064252,-1.503962,"The Milbourne Arms, MILBOURNE ARMS, main street, whitley bay, Tyne and Wear, NE25 0LL"
55.083161,-1.543673,"THE KEEL ROW LTD, THE KEEL ROW, FOREMANS ROW, whitley bay tyne and wear, TYNE & WEAR, NE25 0QG"
55.075579,-1.534864,"The Hastings Arms, The hastings, Wheatridge Row, Seaton Delaval, Northumberland, NE25 0QH"
55.036654,-1.443374,"The quarry inn, 90 Marden Road South, , Whitley Bay, Tyne & Wear, NE25 8PL"
55.045544,-1.497776,"The Red Lion, The red Lion, front street, Earsdon, North tyneside, NE25 9JU"
55.051659,-1.503084,"Herbs Coffee Shop, Earsdon, , Whitley Bay, Northumberland, NE25 9TQ"
55.048083,-1.473391,"Red House Farm Bar & Restaurant, Red House Farm Bar & Restaurant, Hepscott Drive, Whitley Bay, Tyne and Wear, NE25 9XJ"
55.04566,-1.443782,"cafe 19, 19 East Parade, , Whitley Bay, Tyne & Wear, NE26 1AP"
55.04566,-1.443782,"Hinnies Restaurant, 10 East Parade, , Whitley Bay, Tyne & Wear, NE26 1AP"
55.04566,-1.443782,"Takdir Indian Kitchen & Cocktail Bar, 7-8, East Parade, Whitley Bay, Tyne & Wear, NE26 1AP"
55.047723,-1.447241,"Champagne Bar/1910, Spanish City Dome, Spanish City Plaza, Whitley Bay, Tyne & Wear, NE26 1BG"
55.047723,-1.447241,"Valeries, Spanish City Dome, Spanish City Plaza, Whitley Bay, Tyne & Wear, NE26 1BG"
55.047723,-1.447241,"Trenchers, Spanish City Dome, Spanish City Plaza, Whitley Bay, Tyne & Wear, NE26 1BG"
55.047723,-1.447241,"Pancake & Waffle House, Spanish City Dome, Spanish City Plaza, Whitley Bay, Tyne & Wear, NE26 1BG"
55.042499,-1.446267,"Bangkok Palace, 12 Park Avenue, , Whitley Bay, Tyne & Wear, NE26 1DG"
55.042499,-1.446267,"Cup of Joy, 20 Park Avenue, , Whitley Bay, Tyne & Wear, NE26 1DG"
55.042499,-1.446267,"SAMBUCA WHITLEY BAY LTD, 2a-4, Park Avenue, Whitley Bay, Tyne & Wear, NE26 1DG"
55.047606,-1.448794,"Pantrinis, 11-13 Marine Avenue, , Whitley Bay, Tyne & Wear, NE26 1LX"
55.047011,-1.450368,"Crab and Waltzer Ltd ,  8 Marine Ave , The Links , , Whitley Bay , Tyne and Wear , NE26 1NE"
55.042076,-1.442094,"WHITLEY TANDOORI (NE) LTD, 40, Esplanades, Whitley Bay, , NE26 2AE"
55.042076,-1.442094,"Shukran indian restaurant , 43 Esplanade, , Whitley Bay, Tyne & Wear, NE26 2AE"
55.043452,-1.440401,"La Casetta, 33 Esplanade, , Whitley Bay, Tyne & Wear, NE26 2AL"
55.041326,-1.44126,"Pepes Piri Piri Whitley Bay, 165-167, Whitley Road, Whitley Bay, Tyne & Wear, NE26 2DN"
55.041326,-1.44126,"Whitley bay shampan ltd, 185 Whitley Road, , Whitley Bay, Tyne & Wear, NE26 2DN"
55.041326,-1.44126,"Shahenshah (WB) ltd, SHAHENSHAH , 187 - 189 Whitley Road , Whitley Bay, , NE26 2DN"
55.041326,-1.44126,"Shikara Indian Restaurant , 181 Whitley Road, , Whitley Bay, Tyne & Wear, NE26 2DN"
55.041326,-1.44126,"Rif Indian restaurant limited, 177 Whitley Road, , Whitley Bay, Tyne & Wear, NE26 2DN"
55.041783,-1.446809,"Room 305, 305 Whitley Road, , Whitley Bay, Tyne & Wear, NE26 2HU"
55.040759,-1.439124,"Chengs Restaurant , 150 Whitley Road, , Whitley Bay, Tyne & Wear, NE26 2NA"
55.040623,-1.44274,"Lynians Cafe, 31 Station Road, , Whitley Bay, Tyne & Wear, NE26 2QZ"
55.044297,-1.442502,"Hotel 52, 52 South Parade, , Whitley Bay, Tyne & Wear, NE26 2RQ"
55.041893,-1.443317,"Blue Bramble Teahouse, 251 Whitley Road, , Whitley Bay, Tyne & Wear, NE26 2SY"
55.042385,-1.445327,"Coffees and Cream , 242 Whitley Road, , Whitley Bay, Tyne & Wear, NE26 2TE"
55.042034,-1.448777,"Rustic Cup, 28 Park View, , Whitley Bay, Tyne & Wear, NE26 2TH"
55.054144,-1.46212,"The Kittiwake Pub & Kitchen, The Kittiwake, Claremont Crescent, Whitley Bay, Tyne and Wear, NE26 3HL"
55.054144,-1.46212,"Simpson’s Cafe & Bistro , 15 Claremont Crescent, , Whitley Bay, Tyne & Wear, NE26 3HL"
55.054144,-1.46212,"Davanti ITALIA, 2 Claremont Crescent, , Whitley Bay, Tyne & Wear, NE26 3HL"
55.048408,-1.455404,"On the corner, 45 Ilfracombe Gardens, , Whitley Bay, Tyne & Wear, NE26 3LZ"
55.042336,-1.457896,"Fares Fayre coffee station , Unit 5, Monkseaton Metro Station, Norham Road, Whitley Bay, Tyne & Wear, NE26 3NR"
55.043806,-1.450975,"Kith & Kin, 172 Park View, , Whitley Bay, Tyne & Wear, NE26 3QW"
55.045546,-1.45225,"Ahar whitley ltd, 238 Park View, , Whitley Bay, Tyne & Wear, NE26 3QX"
55.045268,-1.452442,"Namaste Taste of India, 195 Park View, , Whitley Bay, Tyne & Wear, NE26 3RD"
55.045268,-1.452442,"Eden's Cafe, 203 Park View, , Whitley Bay, Tyne & Wear, NE26 3RD"
55.044708,-1.451933,"Zamorins, 179-183, Park View, Whitley Bay, Tyne & Wear, NE26 3RE"
55.043915,-1.451411,"Sugar and Slice, 133 Park View, , Whitley Bay, Tyne & Wear, NE26 3RG"
55.05728,-1.464066,"Just  Dave's  at wbgc, Golf Club House, Claremont Road, Whitley Bay, Tyne & Wear, NE26 3UF"
55.082412,-1.478032,"The Melton Constable , The Melton Constable , Beresford Road, Seaton Sluice, Whitley Bay, Northumberland, NE26 4QL"
55.083205,-1.472116,"The Waterford Arms, The Waterford Arms, Collywell Bay Road , Seaton Sluice, Whitley Bay, Tyne & Wear, NE26 4QZ"
55.083205,-1.472116,"Castaways Tea Shop , Castaways, 32 Collywell Bay Road, Seaton Sluice, Northumberland, NE26 4QZ"
55.030348,-1.501987,"BB's Coffee Shop c/o Boundary Mill Stores, Boundary Mills Store, Park Lane, Shiremoor, Tyne & Wear, NE27 0BS"
55.028305,-1.526056,"The Holystone, Whitley Road, Holystone, Newcastle upon Tyne, Tyne & Wear, NE27 0DA"
55.027908,-1.514593,"SAMBUCA BRAISE STATION LTD, 1a, Benton Road, Newcastle upon Tyne, Tyne & Wear, NE27 0EP"
55.030407,-1.488078,"ROBIN HOOD INN, Murton Lane, Murton Village, Newcastle upon Tyne, Tyne & Wear, NE27 0LR"
55.020469,-1.508192,"Eat4less, Unit 4E Cobalt Central,  Silver Fox Way, Newcastle upon Tyne, , NE27 0QJ"
55.001088,-1.497597,"Howdelicious, Howdon Community Centre, Denbigh Avenue, Wallsend, Tyne & Wear, NE28 0PP"
54.991425,-1.530927,"Tots Tea Rooms, 84-84A Park Road, , Wallsend, Tyne & Wear, NE28 6QY"
54.990679,-1.482111,"Sambuca Restaurant, Northumberland Dock Road, , Wallsend, Tyne & Wear, NE28 6ST"
54.991601,-1.529599,"kl ne ltd, 78-80, High Street East, Wallsend, Tyne & Wear, NE28 7RH"
54.990634,-1.535236,"KFC, 68 High Street West, , Wallsend, Tyne & Wear, NE28 8HX"
54.990851,-1.535562,"Costa Coffee - Wallsend, 1-3, High Street West, Wallsend, Tyne & Wear, NE28 8JA"
54.991068,-1.536386,"Burger King, 7a, Segedunum Way, Wallsend, Tyne & Wear, NE28 8JN"
54.994366,-1.552668,"Centurion Park Golf Club, Rheydt Avenue, , Wallsend, Tyne & Wear, NE28 8SU"
55.012628,-1.495795,"McDONALD'S 411, Silverlink Retail Park, Silverlink, Wallsend, Tyne & Wear, NE28 9ND"
55.009624,-1.447392,"YMCA Cafe, Sir James Knott Centre,Ymca Buildin, Church Way, North Shields, Tyne & Wear, NE29 0AB"
55.00994,-1.448042,"CARROT N CAKE CAFE, 14 , West Percy Street, North Shields, Tyne & Wear, NE29 0AG"
55.00998,-1.448622,"DIOAGENIS LIMITED T/A OPA RESTAURANT, 58 Bedford Street, , North Shields, Tyne & Wear, NE29 0AL"
54.995817,-1.46099,"Gutterball Alley, Rotary Way, , North Shields, Tyne & Wear, NE29 6DA"
54.995798,-1.450659,"the lock, The Lock, North Quays Marina, Albert Edward Dock, tyne and wear, NE29 6DU"
54.995181,-1.465222,"subway, 46 Royal Quays Outlet Shopping Cent, Coble Dene, North Shields, Tyne & Wear, NE29 6DW"
54.995181,-1.465222,"LP4 Cafe, 38 Royal Quays Outlet Shopping Cent, Coble Dene, North Shields, Tyne & Wear, NE29 6DW"
55.008028,-1.446351,"Pow Burn, 97-98, Bedford Street, North Shields, Tyne & Wear, NE29 6QH"
55.009224,-1.446459,"Cafe Barista, 17 Bedford Way, , North Shields, Tyne & Wear, NE29 6RX"
55.009224,-1.446459,"Jazz Caffe.ltd, 4 Bedford Way, , North Shields, Tyne & Wear, NE29 6RX"
55.025728,-1.495224,"Wheatsheaf Inn, New York Road, , North Shields, Tyne & Wear, NE29 8EH"
55.014865,-1.472185,"J & J (NE) LTD, THE CANNON INN, COAST ROAD BILLY MILL, NORTH SHIELDS, TYNE AND WEAR, NE29 8NB"
55.025241,-1.46734,"NVS North Tyneside General Hospital, Hvs Shop,North Tyneside General Hos, Rake Lane, North Shields, Tyne & Wear, NE29 8NH"
55.025241,-1.46734,"North Tyneside General Hospital, North Tyneside General Hospital, Rake Lane, North Shields, Tyne & Wear, NE29 8NH"
55.019968,-1.451551,"The Spread Eagle, The Spread Eagle 1 front street, 1 Front Street, preston village, North Shields, Tyne & Wear, NE29 9LB"
55.006884,-1.621792,"Deli espresso, 3a, Salters Road, Newcastle upon Tyne, Tyne & Wear, NE3 1DH"
55.007209,-1.621976,"Gosforth Palace Limited, 6a, Salters Road, Newcastle upon Tyne, Tyne & Wear, NE3 1DJ"
55.004371,-1.620533,"SanLorenzo, 121-123, High Street, Newcastle upon Tyne, Tyne & Wear, NE3 1HA"
55.004291,-1.619925,"Adriano’s Restaurant & Deli, 90 High Street, Gosforth, Newcastle upon Tyne, Tyne & Wear, NE3 1HB"
55.004291,-1.619925,"Ahad Tandoori Restaurant , 78-82, High Street, Newcastle upon Tyne, Tyne & Wear, NE3 1HB"
55.006446,-1.619466,"Queen Victoria , 206 High Street, Gosforth, Newcastle upon Tyne, Tyne & Wear, NE3 1HD"
55.006446,-1.619466,"Barca Art Bar, 182 High Street, Gosforth, Newcastle upon Tyne, Tyne & Wear, NE3 1HD"
55.006304,-1.620015,"Subway , 177 High Street, Gosforth, Newcastle upon Tyne, Tyne & Wear, NE3 1HE"
55.007974,-1.619499,"New New Bengal, 232 High Street, Gosforth, Newcastle upon Tyne, Tyne & Wear, NE3 1HH"
55.007796,-1.620126,"Oli&Joes Gosforth Ltd, 235 High Street, Gosforth, Newcastle upon Tyne, Tyne & Wear, NE3 1HQ"
55.007796,-1.620126,"THE BAKE ONE GOSFORTH LTD, 215 High Street, Gosforth, Newcastle upon Tyne, Tyne & Wear, NE3 1HQ"
55.005278,-1.619556,"The Naked Deli, 30-31, The Gosforth Centre, Newcastle upon Tyne, Tyne & Wear, NE3 1JZ"
55.005278,-1.619556,"Rosie's Bistro and Patisserie, 24 The Gosforth Centre, , Newcastle upon Tyne, Tyne & Wear, NE3 1JZ"
55.004245,-1.603571,"The Millstone Hotel, Haddricks Mill Road, , Newcastle upon Tyne, Tyne & Wear, NE3 1QL"
55.004245,-1.603571,"Brandling Villa, Brandling Villa, Haddricks Mill Rd, Newcastle upon Tyne, Tyne and Wear, NE3 1QL"
55.020387,-1.647643,"Northumbrian Piper , Fawdon House, 1 Fawdon Close, Newcastle upon Tyne, Tyne & Wear, NE3 2AH"
55.018038,-1.622422,"City of Newcastle Golf Club, Great North Road, Gosforth, Newcastle upon Tyne, Tyne & Wear, NE3 2DR"
55.013293,-1.668488,"subway, Unit 3, Tesco Extra, Brunton Lane, Newcastle upon Tyne, Tyne & Wear, NE3 2FP"
55.013293,-1.668488,"SPRINGS SANCTUARY SPA(KINGSTON PARK)LIMITED, 2 Kingston Park Centre Kingston Par, , Newcastle upon Tyne, Tyne & Wear, NE3 2FP"
55.012593,-1.666288,"McDONALD'S 883, Belvedere Retail Park Belvedere Par, , Newcastle upon Tyne, Tyne & Wear, NE3 2PA"
55.012802,-1.634997,"Shahe Restaurant, 30 Wansbeck Road South, , Newcastle upon Tyne, Tyne & Wear, NE3 3HQ"
55.013199,-1.645313,"John Watt at Accord Healthcare, Edgefield Avenue, , Newcastle upon Tyne, Tyne & Wear, NE3 3NB"
55.011204,-1.623675,"Cosentinos , Dobson House, Regent Centre, Newcastle upon Tyne, Tyne & Wear, NE3 3PF"
55.0118,-1.639634,"The Jubilee , The jubilee pub , Jubilee rd, Gosforth , Newcastle upon Tyne , Tyne and Wear , NE3 3PN"
55.006222,-1.652661,"Milligans Kenton, 49A & 51 , Halewood Avenue, NEWCASTLE UPON TYNE, , NE3 3RX"
55.00307,-1.620374,"Basilico Ristorante, 47 High Street Gosforth, , NEWCASTLE UPON TYNE, , NE3 4AA"
55.005471,-1.62082,"1901 Caffe Deli (Gosforth), Trinity Church, High Street, Gosforth, Newcastle upon Tyne, Tyne & Wear, NE3 4AG"
55.004829,-1.62253,"Barluga Gosforth, The Old Church, West Avenue, Newcastle upon Tyne, Tyne & Wear, NE3 4ES"
55.004829,-1.62253,"Captain Ted's Ltd, old church hall , west avenue, newcastle upon tyne, , NE3 4ES"
55.005732,-1.627025,"Gosforth Traders, 151-153, Salters Road, Newcastle upon Tyne, Tyne & Wear, NE3 4HJ"
54.99908,-1.644156,"Peacock , Arlington Avenue, , Newcastle upon Tyne, Tyne & Wear, NE3 4TS"
55.002601,-1.634636,"The Apothecary , 27 Ashburton Road, , Newcastle upon Tyne, Tyne & Wear, NE3 4XN"
55.036076,-1.626882,"Mimis Ice Cream Parlour, Mimis Ice Cream, A3 Rotary Way, Gosforth, County, NE3 5EH"
55.036076,-1.626882,"subway, Unit 2, Rotary Way, Newcastle upon Tyne, Tyne & Wear, NE3 5EH"
55.036076,-1.626882,"McDONALD'S, Rotary Way, Gosforth, Newcastle upon Tyne, England, NE3 5EH"
55.035443,-1.613199,"Border Minstrel Public House, Border Minstrel Public House, High Gosforth Park, Newcastle Upon Tyne, , NE3 5EJ"
55.017637,-1.614778,"Nics kitchen gosforth golf club, Gosforth golf club, Broadway east, Newcastle upon Tyne, Tyne and Wear, NE3 5ER"
55.03538,-1.621868,"Grand Hotel Gosforth Park, Grand Hotel Gosforth Park, High Gosforth Park, Newcastle, , NE3 5HN"
55.033917,-1.622382,"Parklands Mini Golf, Parklands Golf Club, High Gosforth Park, Newcastle Upon Tyne, , NE3 5HQ"
55.033917,-1.622382,"Parklands Golf Course, Parklands Golf Club, High Gosforth Park, Newcastle Upon Tyne, , NE3 5HQ"
55.009054,-1.442771,"The Wooden Deli, 59-61, Saville Street, North Shields, Tyne & Wear, NE30 1AY"
55.010339,-1.434935,"Lobo Rojo, Lobo Rojo Restaurant,The Irvin Buil, Union Quay, North Shields, Tyne & Wear, NE30 1HB"
55.009353,-1.435776,"Allard's on the Quay, 1 Union Quay, , North Shields, Tyne & Wear, NE30 1HJ"
55.009644,-1.434179,"The Staith House, the staith house, 57 low lights, north shields, tyne and wear, NE30 1JA"
55.010008,-1.435237,"How do you do North Shields , Flat Above, How Do You Do, Hudson Street, North Shields, Tyne & Wear, NE30 1JS"
55.011013,-1.434988,"Low Lights Tavern, Low Lights Tavern, Brew House Bank, North Shields, Tyne and Wear, NE30 1LL"
55.014466,-1.449014,"Scott and Wilson Ltd, 1 Trevor Terrace, , North Shields, Tyne & Wear, NE30 2DG"
55.017242,-1.439108,"Tynemouth Golf Club, King Edward Road, , North Shields, Tyne & Wear, NE30 2ER"
55.011138,-1.446464,"Jeera Tandoori Ltd, 1a, Albion Road, North Shields, Tyne & Wear, NE30 2RJ"
55.018556,-1.433895,"The dolphin inn, The dolphin, King Edwards road, Tynemouth, Tyne and wear, NE30 2SN"
55.028456,-1.44682,"La Chacuterie , 21 , Buttermere Road , North Shields , , NE30 3AS"
55.03266,-1.442755,"The Sandpiper, The Sandpiper, Farringdon Road, Cullercoats, Tyne & Wear, NE30 3ER"
55.017347,-1.424953,"Buddha Lounge, 76 Front Street, Tynemouth, North Shields, Tyne & Wear, NE30 4BP"
55.017347,-1.424953,"Davanti, 77 Front Street, Tynemouth, North Shields, Tyne & Wear, NE30 4BP"
55.017347,-1.424953,"vineyard72, Unit 5,Green Ginger Shopping Arcade, Front Street, Tynemouth, Tyne & Wear, NE30 4BP"
55.017347,-1.424953,"Allard's Lounge, 74 Front Street, Tynemouth, North Shields, Tyne & Wear, NE30 4BP"
55.017296,-1.423828,"Lola Jeans Tynemouth, The Arcade, Tynemouth, North Shields, Tyne & Wear, NE30 4BS"
55.017695,-1.42451,"Dil and The Bear Ltd, 18 Front Street, Tynemouth, North Shields, Tyne & Wear, NE30 4DX"
55.017695,-1.42451,"renes of tynemouth, 22 Front Street, Tynemouth, North Shields, Tyne & Wear, NE30 4DX"
55.017695,-1.42451,"The priory, The priory , 26 front street, Tynemouth , , NE30 4DX"
55.017909,-1.422192,"Longsands Fish Kitchen, 27 Front Street, Tynemouth, North Shields, Tyne & Wear, NE30 4DZ"
55.018337,-1.421592,"The Gibraltar Rock, Gibraltar Rock, East Street, Tynemouth, Tyne & Wear, NE30 4EB"
55.018518,-1.423964,"Gulshan Tynemouth , 60 Hotspur Street, , North Shields, Tyne & Wear, NE30 4EE"
55.022171,-1.422694,"robinson crusoes, robinson crusoes, south beach on the beach, north shields, tyne and wear, NE30 4HH"
55.017755,-1.418191,"RILEY'S FISH SHACK, KING EDWARD BAY LIFE GUARD STATION, EAST STREET, TYNEMOUTH, TYNE AND WEAR, NE30 4HL"
55.030401,-1.430349,"the view tynemouth, the view , beachfront restaurant grand parade , north shields, north tyneside, NE30 4JA"
55.027724,-1.430326,"Tynemouth Aquarium - Bay and Laurel, Cafe Within, Blue Reef Aquarium, Grand Parade, Tynemouth, Tyne & Wear, NE30 4JF"
55.025618,-1.429932,"The Greenhouse, The Greenhouse, Tynemouth Park, Grand Parade, Tynemouth, Tyne & Wear, NE30 4JL"
55.019659,-1.425624,"Dibbley’s , 14 Percy Park Road, , North Shields, Tyne & Wear, NE30 4LP"
55.018758,-1.425105,"Priory Coffee Shop, 35 Percy Park Road, , North Shields, Tyne & Wear, NE30 4LT"
55.03511,-1.433899,"The Boatyard, 1-3, John Street, North Shields, Tyne & Wear, NE30 4PL"
55.03511,-1.433899,"cullercoats coffee, 22a, John Street, North Shields, Tyne & Wear, NE30 4PL"
55.035528,-1.432954,"Beaches & Cream Limited, 1 Victoria Crescent, Cullercoats, North Shields, Tyne & Wear, NE30 4PN"
55.035528,-1.432954,"Salthouse , 6/7 victoria crescent , cullercoats , ne304pn, , NE30 4PN"
55.035528,-1.432954,"Sea you there, 2-3, Victoria Crescent, North Shields, Tyne & Wear, NE30 4PN"
55.035457,-1.435208,"Cullercoats Tandoori LTD, 5 Station Road, Cullercoats, North Shields, Tyne & Wear, NE30 4PQ"
55.035809,-1.431994,"The Queens Head, 6 Front Street, Cullercoats, North Shields, Tyne & Wear, NE30 4QB"
54.976817,-1.522566,"MAMBO II, 3 Prince Consort Road, , Hebburn, Tyne & Wear, NE31 1BE"
54.973223,-1.517753,"Dhillons Fish Inn, 43-45 Station Road, , Hebburn, Tyne & Wear, NE31 1LA"
54.965747,-1.516013,"Nekta Food and Juice bar, 18 Mountbatten Avenue, , Hebburn, Tyne & Wear, NE31 2QP"
54.98116,-1.490046,"Mariellie’s , 5-7, Grange Road, Jarrow, Tyne & Wear, NE32 3JY"
54.954968,-1.477826,"Tino’s Italian restaurant , Fellgate Avenue, , Jarrow, Tyne & Wear, NE32 4LZ"
54.966623,-1.501276,"The Lord Nelson, the lord nelson, monkton lane, Tyne and Wear, , NE32 5NN"
54.964016,-1.479614,"Vespa Italian, Vespa Italian , Primrose Hill, Jarrow, , NE32 5UB"
54.997299,-1.436851,"Cafe 42 Ltd, 24 Chapter Row, , South Shields, Tyne & Wear, NE33 1BN"
54.998138,-1.433604,"The smithy cafe , 31 East Smithy Street, , South Shields, Tyne & Wear, NE33 1BT"
54.998414,-1.433209,"McDonald's, 1-3, King Street, South Shields, Tyne & Wear, NE33 1DA"
54.994923,-1.439716,"Riverview, The Riverside, 3 Mill Dam, South Shields, Tyne & Wear, NE33 1EQ"
54.994991,-1.440856,"Dame Bellas Green Room, The Green Room Bar and Bistro,The, Mill Dam, South Shields, Tyne & Wear, NE33 1ES"
54.998695,-1.435349,"Ristorante Bravi, 7 North Street, , South Shields, Tyne & Wear, NE33 1HD"
55.00648,-1.428235,"Little Haven Hotel, River Drive, , South Shields, Tyne & Wear, NE33 1LH"
54.995901,-1.431807,"Orangegrass, 3 Mount Terrace, , South Shields, Tyne & Wear, NE33 1PN"
54.997311,-1.431414,"Bangla Spice Ltd, 9 Burrow Street, , South Shields, Tyne & Wear, NE33 1PP"
54.994528,-1.432047,"Mambos Italiano, 3 St. Hilda Street, , South Shields, Tyne & Wear, NE33 1QD"
54.994798,-1.430415,"Goldies Independent Music Hub, 2 Charlotte Terrace, , South Shields, Tyne & Wear, NE33 1QQ"
54.999175,-1.432464,"Charlestons coffee house, 8 Mile End Road, , South Shields, Tyne & Wear, NE33 1TS"
54.998668,-1.431504,"Victorian Pantry , Museum &Art Gallery, Ocean Road, South Shields , Tyne &wear, NE33 2JA"
54.999329,-1.429007,"RADHUNI RESTAURANT LTD, 88-92 Ocean Road, , South Shields, , NE33 2JD"
54.999329,-1.429007,"Davincis, 80-82, Ocean Road, South Shields, Tyne & Wear, NE33 2JD"
54.999752,-1.42694,"AutismAble CIC Trading as The Sea Change Cafe, 158 Ocean Road, , South Shields, Tyne & Wear, NE33 2JF"
54.999752,-1.42694,"Indian Brasserie UK LTD, 146 Ocean Road, , South Shields, Tyne & Wear, NE33 2JF"
54.999752,-1.42694,"Indigo South Shields ltd, 104-106, Ocean Road, South Shields, Tyne & Wear, NE33 2JF"
54.999752,-1.42694,"Delhi 6 , 150 Ocean Road, , South Shields, Tyne & Wear, NE33 2JF"
54.999752,-1.42694,"Cream Curls, 116 Ocean Road, , South Shields, Tyne & Wear, NE33 2JF"
54.999752,-1.42694,"Italian Spanish, 118 Ocean Road, , South Shields, Tyne & Wear, NE33 2JF"
55.000445,-1.425226,"The Clifton Coffeeshop, 101 Ocean Road, , South Shields, Tyne & Wear, NE33 2JL"
55.000445,-1.425226,"TANDOORI INTERNATIONAL, Tandoori Internationale, 97 Ocean Road, South Shields, Tyne & Wear, NE33 2JL"
55.000183,-1.424886,"The Marine, The Marine, 230 Ocean Road, South Shields, , NE33 2JQ"
55.000183,-1.424886,"Kuzey, 166-170, Ocean Road, South Shields, Tyne & Wear, NE33 2JQ"
55.000183,-1.424886,"Star of India, 194-198, Ocean Road, South Shields, Tyne & Wear, NE33 2JQ"
55.000183,-1.424886,"Colmans Of South Shields, 182-184, Ocean Road, South Shields, Tyne & Wear, NE33 2JQ"
55.000183,-1.424886,"cafe India North East ltd, 200 Ocean Road, , South Shields, Tyne & Wear, NE33 2JQ"
55.000183,-1.424886,"ELTIO LATIN RESTAURANT, 174 OCEAN ROAD , SOUTH SHIELDS , TYNE AND WEAR, , NE33 2JQ"
55.000183,-1.424886,"Spice garden ocean road ltd , 202 Ocean Road, , South Shields, Tyne & Wear, NE33 2JQ"
55.000183,-1.424886,"ZEERA INDIAN CUISINE, 206-208, Ocean Road, South Shields, Tyne & Wear, NE33 2JQ"
55.000183,-1.424886,"Shapla (South Shields) Ltd, 216-218 Ocean Road, , South Shields, Tyne & Wear, NE33 2JQ"
54.998645,-1.413449,"Platform 33, Platform 33, 33 Sea Road, South Shields, , NE33 2LD"
54.998645,-1.413449,"Loca, Sea Road, , South shields, , NE33 2LD"
54.998645,-1.413449,"daa (t/a sambuca south shields) ltd, The Dunes, Sea Road, South Shields, Tyne & Wear, NE33 2LD"
54.998645,-1.413449,"The New Sundial, The New Sundial, Sea Road, South Shields, Tyne & Wear, NE33 2LD"
54.998645,-1.413449,"Colmans Seafood Temple, Sea Road, , South Shields, Tyne & Wear, NE33 2LD"
54.998645,-1.413449,"The Dunes, The Dunes, Sea Road, South Shields, Tyne & Wear, NE33 2LD"
54.998645,-1.413449,"The Sea Hotel, Sea Road, , South shields, , NE33 2LD"
54.998316,-1.431118,"Dixy Chicken, South Shields, 1 Denmark Centre, South Shields, 03 Follower Street , South Shields, , NE33 2LR"
54.998316,-1.431118,"ejs cafe, 10 Denmark Centre, , South Shields, Tyne & Wear, NE33 2LR"
54.997504,-1.422907,"Annie's Guest House, 106 Beach Road, , South Shields, Tyne & Wear, NE33 2NE"
54.996738,-1.430263,"Tuscanos italian restaurant , 2 Winchester Street, , South Shields, Tyne & Wear, NE33 2PS"
54.996738,-1.430263,"Mambos Wine and Dine, 18 Winchester Street, , South Shields, Tyne and Wear, NE33 2PS"
54.994222,-1.41881,"Fit Belli Deli, R9, Sea Winnings Way, South Shields, Tyne & Wear, NE33 3PE"
54.994222,-1.41881,"Mac N Alli, R6, Sea Winnings Way, South Shields, Tyne & Wear, NE33 3PE"
54.986647,-1.424639,"LASUN INDIAN CUISINE LTD, 50 Dean Road, , South Shields, Tyne & Wear, NE33 4DZ"
54.985983,-1.424914,"Greek street food , Hedworth Hall Assembly Rooms, 35 Dean Road, South Shields, Tyne & Wear, NE33 4EA"
54.98996,-1.429486,"KFC, Chichester Road, , South Shields, Tyne and Wear, NE33 4HN"
54.977591,-1.43438,"SOUTHSHIELDS INDIAN LIMITED, 337-339, Stanhope Road, South Shields, Tyne & Wear, NE33 4SS"
54.983745,-1.44601,"The Owl and The Swan Coffee, 3 Nicholson Buildings, , South Shields, Tyne & Wear, NE33 5BD"
54.987693,-1.436785,"Aneesas Buffet Restaurant, 2 New George Street, , South Shields, Tyne & Wear, NE33 5DU"
54.978043,-1.444794,"Man Vs food Grill House, 35 Hudson Street, , South Shields, Tyne & Wear, NE34 0AD"
54.975104,-1.421635,"The Grey Hen, The Grey Hen, 141 Temple Park Road, South Shields, Tyne & Wear, NE34 0EN"
54.977427,-1.413149,"Cafe At The Corner, 169 Sunderland Road, , South Shields, Tyne & Wear, NE34 6AD"
54.972236,-1.411897,"Spice One, 1 South Avenue, , South Shields, Tyne & Wear, NE34 6QZ"
54.972174,-1.410289,"Caffé Mio, 299 Sunderland Road, , South Shields, Tyne & Wear, NE34 6RB"
54.977017,-1.377565,"The Grotto, Managers Accommodation,Marsden Grot, Coast Road, South Shields, Tyne & Wear, NE34 7BS"
54.978789,-1.386756,"Marsden Inn, 143 Marsden Lane, , South Shields, Tyne & Wear, NE34 7HN"
54.964039,-1.413701,"RAZZ LOUNGE LTD, 389 King George Road, , South Shields, , NE34 8AQ"
54.970609,-1.462656,"McDonald's , Towers Place, , South Shields, Tyne & Wear, NE34 9QD"
54.953682,-1.465179,"Greek street food , 2 Hedworth Lane, , Boldon Colliery, Tyne & Wear, NE35 9HS"
54.947082,-1.466529,"McDonald's , Abingdon Way, , Boldon Colliery, Tyne & Wear, NE35 9PB"
54.943696,-1.470791,"Clarion Hotel Boldon, Quality Hotel Sunderland, Witney Way, Boldon Colliery, Tyne & Wear, NE35 9PE"
54.947512,-1.42086,"Beggar's Bridge pub and kitchen, Beggar's bridge, Station approach, East boldon, Tyne and wear, NE36 0AB"
54.94195,-1.46393,"THE TRAVELLING MAN, the travelling man, newcastle road, west boldon, tyne and wear, NE36 0BQ"
54.944759,-1.426034,"VOLARE BOLDON LIMITED, 2 St. Bedes, , East Boldon, Tyne & Wear, NE36 0LE"
54.944759,-1.426034,"Blacks Corner, 1 St. Bedes, , East Boldon, Tyne & Wear, NE36 0LE"
54.944759,-1.426034,"No4 Cafe Bistro, 4 St Bedes, , East Boldon, Tyne & Wear, NE36 0LE"
54.942404,-1.455165,"red lion inn, Managers Accommodation,The Red Lion, Redcar Terrace, West Boldon, Tyne & Wear, NE36 0PZ"
54.9435,-1.454949,"The Black Horse, Rectory Bank, West Boldon, East Boldon, Tyne & Wear, NE36 0QQ"
54.942974,-1.453785,"Sambuca Boldon, Sambuca, The Wheatsheaf, St Nicholas Road, West Boldon, Tyne & Wear, NE36 0QR"
54.907656,-1.533475,"kylin oriental, kylin oriental, stella building, brandy lane, albany village, washington, , NE37 1BH"
54.887362,-1.556843,"Campanile Washington, Emerson Road, , Washington, Tyne & Wear, NE37 1LE"
54.919994,-1.535473,"The Blue Bell, The Blue Bell, Peareth Hall Road, Washington, Tyne and Wear, NE37 1NP"
54.923673,-1.534151,"The George Washington Hotel & Golf Club Ltd, Stone Cellar Road, , Washington, Tyne & Wear, NE37 1PH"
54.912104,-1.521804,"Willow Brook Community Cafe, Willow Brook Extra Care Scheme, Spout Lane, Washington, Tyne & Wear, NE37 2AH"
54.907087,-1.501136,"Clay's Garden Centre Limited, The Peel Centre, Spire Road, Washington, Tyne & Wear, NE37 2PA"
54.907087,-1.501136,"McDonald's Restaurants, Peel Retail Park, , Washington, Tyne & Wear, NE37 2PA"
54.913358,-1.522961,"Building blocks day centre community interest company , 20 Victoria Road, , Washington, Tyne & Wear, NE37 2SS"
54.912661,-1.523921,"Concord tandoori ltd, 2-3, Victoria Road, Washington, Tyne & Wear, NE37 2SY"
54.912661,-1.523921,"concord tandoori limited, 2-3, Victoria Road, Washington, Tyne & Wear, NE37 2SY"
54.908247,-1.501215,"NAC Outsourcing, 1a Glover Industrial Estate, Spire Road, Washington, Tyne & Wear, NE37 3ES"
54.913935,-1.498916,"ELM Tree Farm Tea Room Ltd, Elm Tree Farm, Washington Road, Washington, Tyne & Wear, NE37 3HQ"
54.890299,-1.55151,"The Cherrytree, Goldcrest Road, , Washington, Tyne & Wear, NE38 0DL"
54.888283,-1.550476,"Champs Sports Bar and grill, Champs Sports Bar , Dunnock Drive, Ayton, Washington, Tyne and Wear, NE38 0EF"
54.897125,-1.545759,"Ox & Plough, Oxclose Village Centre, , Washington, Tyne & Wear, NE38 0LZ"
54.903635,-1.516446,"The green , The Green, , Washington, Tyne & Wear, NE38 7AB"
54.903635,-1.516446,"The forge, The Green, , Washington, Tyne & Wear, NE38 7AB"
54.900236,-1.526968,"Ragamy limited, 39 Newstead Court, , Washington, Tyne & Wear, NE38 7PE"
54.899583,-1.532511,"Alice and Elsie's Tearoom and Cafe Limited, unit 78-81 Market Village, The Galleries, Washington, Tyne and Wear, NE38 7RT"
54.899583,-1.532511,"Lebanos, Unit 30 market village , The galleries, Washington, Tyne and wear, NE38 7RT"
54.901121,-1.533176,"KFC, Coniston Retail Park, The Galleries, Washington, , NE38 7RU"
54.899583,-1.532511,"redz traditional fish and chips, 10c, The Galleries Washington Centre, Washington, Tyne & Wear, NE38 7SA"
54.899583,-1.532511,"Gillies Restaurant, 11 The Galleries Washington Centre, , Washington, Tyne & Wear, NE38 7SA"
54.899583,-1.532511,"McDonald's Restaurants, 31a, The Galleries Washington Centre, Washington, Tyne & Wear, NE38 7SB"
54.899583,-1.532511,"Am coffee, 46-47, The Galleries Washington Centre, Washington, Tyne & Wear, NE38 7SD"
54.899583,-1.532511,"Muffin Break, Muffin Break, Mall kiosk, Galleries shopping centre, Washington , Tyne and Wear, NE38 7SD"
54.884805,-1.519791,"The Courtyard Cafe Bar, Washington Arts Centre, Biddick Lane, Fatfield, , NE38 8AB"
54.879519,-1.51728,"Fiume and River Bar, 16 Bonemill Lane, , Washington, Tyne & Wear, NE38 8AJ"
54.879519,-1.51728,"The Havelock, The Havelock, Bonemill Lane, Washington, Tyne and Wear, NE38 8AJ"
54.879519,-1.51728,"The Biddick Inn, Biddick Inn, Bonemill Lane, Washington, Tyne & Wear, NE38 8AJ"
54.893212,-1.492342,"Teal Farm Pub, Teal Farm Pub, Edale Close, Washington, Tyne & Wear, NE38 8FH"
54.901112,-1.508024,"Miss Tina's Coffee Shop, Miss Tina's, , Washington, , NE38 8JA"
54.896344,-1.506572,"FreshPrepare, 3 Eddison Road, , Washington, Tyne & Wear, NE38 8JH"
54.902005,-1.486838,"WWT Washington Wetland Centre, Sir Peter Scott Building,The Wildfo, Middle Barmston Farm, Washington, Tyne & Wear, NE38 8LE"
54.885714,-1.51791,"The keelboat, Stockfold, , Washington, Tyne & Wear, NE38 8RU"
54.878998,-1.533201,"San Lorenzo, 55 New Road, , Washington, Tyne & Wear, NE38 9AT"
54.879611,-1.548153,"M&M Woodlands ltd, Woodlands pub, Vigo lane , Washington , Tyne & Wear, NE38 9EJ"
54.913853,-1.756783,"LINTZFORD GARDEN CENTRE, Lintzford Bridge Garden Centre, Lintzford Road, Rowlands Gill, Durham, NE39 1DG"
54.979251,-1.639144,"Dibra Mediterranean Restaurant , 3-4, Studley Terrace, Newcastle upon Tyne, Tyne & Wear, NE4 5AH"
54.975813,-1.637535,"Four Seasons Cafe And Grill, stanhop street, , newcastle upon tyne, tyne wear, NE4 5JT"
54.975813,-1.637535,"2575722472, 270 Stanhope Street, , Newcastle upon Tyne, Tyne & Wear, NE4 5JT"
54.975559,-1.639724,"Kamal Restaurant, 290 Stanhope Street, , Newcastle upon Tyne, Tyne & Wear, NE4 5JU"
54.976657,-1.637449,"AFGHAN GRILL HOUSE, 121 Stanton Street, , Newcastle upon Tyne, Tyne & Wear, NE4 5LH"
54.971269,-1.621436,"Hanahana Japanese Restaurant, 45 Bath Lane, , Newcastle upon Tyne, Tyne & Wear, NE4 5SP"
54.971269,-1.621436,"Fujiyama Japanese Restaurant, 35 Bath Lane, , Newcastle upon Tyne, Tyne & Wear, NE4 5SP"
54.973402,-1.622604,"Espresso Park Limited t/a The Dispensary, Heber Street, , Newcastle upon Tyne, Tyne & Wear, NE4 5TN"
54.970875,-1.62402,"The Westgate Fish & Grill, 183 Westgate Road, , Newcastle upon Tyne, Tyne & Wear, NE4 6AA"
54.971086,-1.625596,"salt & pepper cafe ltd, 227 Westgate Road, , Newcastle upon Tyne, Tyne & Wear, NE4 6AD"
54.971086,-1.625596,"Chicos, 223 Westgate Road, , Newcastle upon Tyne, Tyne & Wear, NE4 6AD"
54.972721,-1.634391,"Luigikhans , Luigikhans Restaurant, 358 Westgate Road, Newcastle upon Tyne, Tyne & Wear, NE4 6NU"
54.973267,-1.639495,"SHAWARMA FATTOUSH LTD, 411 Westgate Road, , Newcastle upon Tyne, Tyne & Wear, NE4 6PB"
54.973368,-1.640369,"The Mealcastle, IA Mill Lane, , Newcastle upon Tyne, , NE4 6QB"
54.967077,-1.622353,"MOSOB RESTAURANT, 24a, Scotswood Road, Newcastle upon Tyne, Tyne & Wear, NE4 7JB"
54.968409,-1.63176,"Courtyard by Marriott Glasgow Airport Hotel, 31-40 West Parade, , Newcastle upon Tyne, Tyne & Wear, NE4 7LB"
54.980616,-1.648179,"The Oven Door, 37-39, Nuns Moor Road, Newcastle upon Tyne, Tyne & Wear, NE4 9AX"
54.975053,-1.648834,"Kilimanjaro Newcastle, Westgate Road, , Newcastle, , NE4 9BL"
54.97522,-1.649898,"Supreme crust pizza , Unit 1, 498 Westgate Road, Newcastle upon Tyne, Tyne & Wear, NE4 9HD"
54.974977,-1.650538,"Icestone Gelato (Newcastle), 575 Westgate Road, , Newcastle upon Tyne, Tyne & Wear, NE4 9PR"
54.974977,-1.650538,"Subway - Westgate Road, 577 Westgate Road, , Newcastle upon Tyne, Tyne & Wear, NE4 9PR"
54.974977,-1.650538,"Chaiiwala , 581 Westgate Road, , Newcastle upon Tyne, Tyne & Wear, NE4 9PR"
54.97572,-1.654971,"Dixy Chicken, 25 West Road, , Newcastle upon Tyne, Tyne & Wear, NE4 9PU"
54.97572,-1.654971,"WESTROAD ASIAN SWEET CENTRE, 31a-33, West Road, Newcastle upon Tyne, Tyne & Wear, NE4 9PU"
54.975705,-1.652924,"Fortune Cookie Xpress, 68-70, West Road, Newcastle upon Tyne, Tyne & Wear, NE4 9PY"
54.976209,-1.656263,"pepes piri piri, 144 West Road, , Newcastle upon Tyne, Tyne & Wear, NE4 9QB"
54.976209,-1.656263,"Pepes Newcastle , 144 West Road, , Newcastle upon Tyne, Tyne & Wear, NE4 9QB"
54.983675,-1.665356,"Two ball lonnen Indian restaurant ltd, 199-201, Two Ball Lonnen, Newcastle upon Tyne, Tyne & Wear, NE4 9RS"
54.986158,-1.663179,"Achellos, 233b, Two Ball Lonnen, Newcastle upon Tyne, Tyne & Wear, NE4 9RX"
54.972535,-1.766693,"Coffee Johnny's ltd , 1-3, Main Road , Ryton , Tyne and wear, NE40 3BT"
54.972874,-1.752178,"The Runhead, Runhead Hotel, Holburn Lane, Ryton, Tyne & Wear, NE40 3HJ"
54.972738,-1.761487,"signori ryton ltd, 1 Dean Terrace, , Ryton, Tyne & Wear, NE40 3HQ"
54.965093,-1.790882,"THE LAMBS ARMS INN, Lambs Arms Buildings, Crawcrook, Ryton, Tyne & Wear, NE40 4HJ"
54.966713,-1.788309,"Crawcrook Tandoori, 17-19, Main Street, Ryton, Tyne & Wear, NE40 4TX"
54.975964,-1.823446,"BISTRO EN GLAZE, Laburnum House, , Wylam, Northumberland, NE41 8AJ"
54.97616,-1.82352,"The Ship Inn Wylam, The Ship Inn, Main Road, Wylam, Northumberland, NE41 8AQ"
54.97616,-1.82352,"The Coffee Tree, The Coffee Tree, Main Street, Wylam, Northumberland, NE41 8AQ"
54.961386,-1.849758,"The Corner Cafe, The Corner Cafe, 59 Front Street, Prudhoe, Northumberland , NE42 5AA"
54.961151,-1.847624,"Caffe Ginevra Prudhoe, 50 Front Street, , Prudhoe, Northumberland, NE42 5DB"
54.960979,-1.832898,"The Falcon, The Falcon, Eastwoods Road, West Wylam, Northumberland, NE42 5DN"
54.961364,-1.845609,"Anne Rowell t/a A&R Ball, 39 Front Street, , Prudhoe, Northumberland, NE42 5DQ"
54.963827,-1.831996,"Miners Lamp Community Cafe and Hub, Miners Lamp Community Cafe and Hub, Eastwoods Road, Prudhoe, Northumberland, NE42 5DT"
54.961411,-1.848243,"No22 front street cafe/bar was La piccolo, 22 Front Street, , Prudhoe, Northumberland, NE42 5HN"
54.968821,-1.866839,"White Swan, Residential Flat, White Swan, Main Road, Ovingham, Northumberland, NE42 6AG"
54.968409,-1.896237,"Winships Little Med, Winships main road, Main road, Ovington Prudhoe, Northumberland, NE42 6DH"
54.965322,-1.865596,"Diandjims Fun Station Limited, 1 Station Industrial Estate, Low Prudhoe, Prudhoe, Northumberland, NE42 6NP"
54.965322,-1.865596,"Adam and Eve, Low Prudhoe, , Prudhoe, Northumberland, NE42 6NP"
54.92022,-1.926768,"Wheelbirks Parlour, The Parlour, Wheelbirks Jersey Farm, , Stocksfield, Northumberland, NE43 7HY"
54.94919,-1.889043,"The Blue Bell Inn, Mount Pleasant, West Mickley, Stocksfield, Northumberland, NE43 7LP"
54.94919,-1.889043,"The Blue Bell Inn, The Blue Bell Inn, 17 Mount Pleasent , Stocksfield, , NE43 7LP"
54.927407,-1.878507,"Pons Aelius Ltd TA The Feathers Inn, The Feathers Inn, Hedley on the Hill, Stocksfield, Northumberland, NE43 7SW"
54.970553,-1.970103,"Brocksbushes Tea Room, Brocksbushes Tea Rooms,Brocksbushes, , Stocksfield, Northumberland, NE43 7UB"
54.975281,-1.947274,"The Duke of Wellington Inn, Newton, , Stocksfield, Northumberland, NE43 7UL"
54.948869,-1.972382,"The Station Coffee House, Station House, Dene Close, Riding Mill, Northumberland, NE44 6JD"
54.974599,-2.018638,"Corbridge Larder, Heron House, 18 Hill Street, Corbridge, Northumberland, NE45 5AA"
54.974599,-2.018638,"FOURANDTWENTY, 42 Hill Street, , Corbridge, Northumberland, NE45 5AA"
54.974599,-2.018638,"The Golden Lion, Managers Flat,The Golden Lion Hotel, Hill Street, Corbridge, Northumberland, NE45 5AA"
54.974599,-2.018638,"Four and Twenty, 42 Hill Street, , Corbridge, Northumberland, NE45 5AA"
54.975317,-2.020154,"Watling Coffee House, 11 Watling Street, , Corbridge, Northumberland, NE45 5AG"
54.975012,-2.020529,"Spokes Kitchen , 17 Watling Street, , Corbridge, Northumberland, NE45 5AH"
54.973457,-2.019138,"Alex Ghitiu t/a Cassia, 18-22, Front Street, Corbridge, Northumberland, NE45 5AP"
54.973898,-2.018732,"Masseys Tearoom, 26 Middle Street, , Corbridge, Northumberland, NE45 5AT"
54.973843,-2.020169,"Cafe No6 , 6 Market Place, , Corbridge, Northumberland, NE45 5AW"
54.967401,-2.018166,"THE DYVELS INN, Station Road, , Corbridge, Northumberland, NE45 5AY"
54.967401,-2.018166,"The Valley Corbridge Limited, The Valley Restaurant,Old Station, Station Road, Corbridge, Northumberland, NE45 5AY"
54.975757,-2.020467,"The Wheatsheaf, St. Helens Street, , Corbridge, Northumberland, NE45 5HE"
54.973745,-2.016107,"The Angel of Corbridge Ltd, Main Street, , Corbridge, Northumberland, NE45 5LA"
54.973745,-2.016107,"Angelfish, Main Street, , Corbridge, Northumberland, NE45 5LA"
54.969382,-2.100814,"Danielle's Bistro, 12 Eastgate, , Hexham, Northumberland, NE46 1BH"
54.970128,-2.101082,"SHIREGATE CAFE, 4 CATTLE MARKET, CATTLE MARKET, HEXHAM, NORTHUMBERLAND, NE46 1LS"
54.970523,-2.10152,"The Hextol Tans Coffee Shop and Vegetarian Restaurant, 11 St. Marys Chare, , Hexham, Northumberland, NE46 1NQ"
54.970316,-2.098483,"Vercelli Restaurant 2017 LLP, 36 Priestpopple, , Hexham, Northumberland, NE46 1PQ"
54.970316,-2.098483,"SAATHI, 28 Priestpopple, , Hexham, Northumberland, NE46 1PQ"
54.970316,-2.098483,"Hexham Fish Bar, 48 Priestpopple, , Hexham, Northumberland, NE46 1PQ"
54.970039,-2.09706,"THE COUNTY HOTEL, THE COUNTY HOTEL, PRIESTPOPPLE, HEXHAM, NORTHUMBERLAND, NE46 1PS"
54.970372,-2.095702,"Hexham General Hospital, Hexham General Hospital, Corbridge Road, Hexham, Northumberland, NE46 1QJ"
54.970372,-2.095702,"NVS Hexham General Hospital, Hexham General Hospital, Corbridge Road, Hexham, Northumberland, NE46 1QJ"
54.92036,-2.063966,"Travellers Rest, Travellers Rest, , Hexham, Northumberland, NE46 1TT"
54.943662,-2.062723,"Hollybush Nursery, Hollybush Nursery, , Hexham, Northumberland, NE46 1UD"
54.970867,-2.098537,"The Wentworth Cafe, Wentworth Cafe, Wentworth Place, Hexham, Northumberland, NE46 1XB"
54.97109,-2.09971,"Bunters Coffee Shop, 10 Hallgate, , Hexham, Northumberland, NE46 1XD"
54.943627,-2.111755,"Dipton Mill Inn, Dipton Mill Inn, Dipton Mill Road, Hexham, Northumberland, NE46 1YA"
54.977781,-2.104601,"CAFE ENNA LTD, Tynedale Golf Club , Tynegreen Road, Hexham, Northumberland, NE46 3HQ"
54.970045,-2.103253,"The Rising Cafe, Central Chambers, Beaumont Street, Hexham, , NE46 3LS"
54.97009,-2.103097,"The Beaumont Hotel, Beaumont Street, , Hexham, Northumberland, NE46 3LT"
54.971276,-2.103147,"Hexham Abbey Trading Limited, Abbey Cottage, Beaumont Street, Hexham, Northumberland, NE46 3NB"
54.972973,-2.104713,"Bouchon Bistrot, 4-6, Gilesgate, Hexham, Northumberland, NE46 3NJ"
54.972328,-2.102212,"The Heart Of Northumberland, The Heart Of Northumberland, 5 Market Street, Hexham, Northumberland, NE46 3NS"
54.972182,-2.102283,"Little mexico, 4b, Market Street, Hexham, Northumberland, NE46 3NU"
54.97178,-2.10182,"Cilantro, First and Second Floor, 19 Market Place, Hexham, Northumberland, NE46 3NX"
54.97176,-2.101329,"Small World Cafe, 27-28, Market Place, Hexham, Northumberland, NE46 3PB"
55.016133,-2.132709,"The Hadrian Hotel, The Hadrian Hotel, Front Street, Wall, Hexham, Northumberland, NE46 4EE"
54.984165,-2.074412,"The Rat Inn, The Rat, Anick, Hexham, Northumberland, NE46 4LN"
54.989252,-2.14185,"Boatside Inn, Bed and Breakfast Apartments,Boatsi, , Hexham, Northumberland, NE46 4SQ"
54.914619,-2.039747,"Rose and Crown, Rose & Crown, Main Street, Slaley , Hexham, Northumberland, NE47 0AA"
54.897794,-2.014876,"Slaley Hall Hotel, Slaley Hall, Slaley, Hexham, Northumberland, NE47 0BX"
54.957108,-2.257986,"LANGLEY CASTLE HOTEL, Langley Castle Hotel, LANGLEY-ON-TYNE, Hexham, Northumberland, NE47 5LU"
54.939722,-2.284956,"The Carts Bog Inn, Langley-on-Tyne, , Hexham, Northumberland, NE47 5NW"
54.972584,-2.248447,"General Havelock Inn, 9 Ratcliffe Road, Haydon Bridge, Hexham, Northumberland, NE47 6ER"
54.995551,-2.395172,"The Twice Brewed Inn, The Twice Brewed Inn, , Bardon Mill, Northumberland, NE47 7AN"
54.975981,-2.347423,"The Bowes Hotel, The Bowes Hotel, Bardon MIll, Hexham, Northumberland, NE47 7HU"
54.975791,-2.347844,"Bardon Mill Village Store and Tea Room, 3 Millfield Terrace/Village Shop, Bardon Mill, Hexham, Northumberland, NE47 7HX"
54.897524,-2.255086,"Allendale forge Cafe, Forge Studios, Market place, Alledale , Northumberland , NE47 9BD"
54.897524,-2.255086,"The Kings Head, Market Place, , Allendale, , NE47 9BD"
54.897524,-2.255086,"Allen Valleys Farm Shop, Ground Floor, Kirkton House, Market Place, Allendale, Northumberland, NE47 9BD"
54.897524,-2.255086,"The Golden Lion Hotel, The Golden Lion Hotel, Market Place, Allendale, Northumberland, NE47 9BD"
55.180712,-2.435217,"The Blackcock Inn at Falstone, The Blackcock Inn, Falstone, Hexham , Northumberland , NE48 1AA"
55.183152,-2.534595,"The Boat Inn, Landal Kielder Waterside, Kielder, Hexham, Northumberland, NE48 1BT"
55.174835,-2.475135,"Cafe on the Water, Tower Knowe, Falstone, Hexham, Northumberland, NE48 1BX"
55.1729,-2.437651,"THE PHEASANT INN, The Pheasant Inn, Stannersburn, Hexham, Northumberland, NE48 1DD"
55.158426,-2.300152,"The Boe Rigg, Caravan and Camp Site, The Boe Rigg, , Bellingham, Northumberland, NE48 1PE"
55.179288,-2.322497,"Hollybush Inn, Hollybush Inn, Greenhaugh , Hexham , Northumberland , NE48 1PW"
55.144376,-2.254801,"The Cheviot, The Cheviot, Main Street, Bellingham, Northumberland, NE48 2AU"
55.145147,-2.253795,"Fountain Cottage Cafe Ltd, Fountain Cottage, , Bellingham, Hexham, NE48 2DE"
55.144192,-2.250635,"Carriages Tearoom, Carriages Tea Room,The Heritage Cen, Station Yard, Bellingham, Northumberland, NE48 2DG"
55.148722,-2.256774,"Carriages at the Golf Club, Bellingham Golf Club, Boggle Hole, Bellingham, Northumberland, NE48 2DT"
55.144742,-2.26442,"Riverdale hall hotel Ltd, Bellingham, , Hexham, Northumberland, NE48 2JT"
55.176154,-2.170626,"WWN PUBS LTD T/A THE BAY HORSE INN, Residential Flat, Bay Horse Inn, , West Woodburn, Northumberland, NE48 2RX"
55.055133,-2.13276,"Barrasford Arms Hotel, Barrasford Arms, Barrasford, Hexham, Northumberland, NE48 4AA"
54.970483,-2.459854,"CENTRE OF BRITAIN HOTEL AND RESTAURANT, Market Square, , Haltwhistle, Northumberland, NE49 0BH"
54.970302,-2.458641,"The Black Bull, Market Square, , Haltwhistle, Northumberland, NE49 0BL"
54.970734,-2.460833,"Zaki Indian Restaurant & Grill, Aesica Road, , Haltwhistle, Northumberland, NE49 9DE"
55.00311,-1.695524,"Gormans fish and chips, Unit 1, Mayfair House, Redburn Road, Newcastle upon Tyne, Tyne & Wear, NE5 1NB"
55.015352,-1.723142,"Poachers Cottage, The Poachers Cottage, Armstrong Street, Newcastle Upon Tyne, Tyne and Wear, NE5 1NQ"
54.993026,-1.699256,"Caffe Ginevra Denton, Unit 9, Denton Park Shopping Centre, West Denton Way, Newcastle upon Tyne, Tyne & Wear, NE5 2QZ"
54.989787,-1.653162,"KFC, Ponteland Road, , Cowgate, Newcastle Upon Tyne, NE5 3AJ"
54.999139,-1.69299,"Oliandjoes Italian Resturant , 429 Stamfordham Road , Stamfordham road, Newcastle upon Tyne , Uk, NE5 5HB"
54.968248,-1.582649,"The Cycle Hub, Ouseburn Regeneration Centre, Quayside, Newcastle upon Tyne, Tyne & Wear, NE6 1BU"
54.977881,-1.576584,"Singin Hinny Cafe, 241 Shields Road, , Newcastle upon Tyne, Tyne & Wear, NE6 1DQ"
54.975158,-1.586939,"The Bake, 98 Byker Bank, Byker, Newcastle upon Tyne, Tyne & Wear, NE6 1LA"
54.972121,-1.587142,"KFC, Shields Road, Byker, Clifford Street, Newcastle Upon Tyne, , NE6 1LL"
54.973194,-1.588987,"Kiln, Unit 4 Hume Street, , Newcastle-upon-Tyne, , NE6 1LN"
54.971886,-1.587267,"Brinkburn St Bar & Kitchen, Unit, 1A Ford Street, Newcastle upon Tyne, Tyne & Wear, NE6 1NW"
54.979025,-1.580118,"Bear Natural Kitchen Garden LTD, 33-35, Heaton Road, Newcastle upon Tyne, Tyne & Wear, NE6 1SB"
54.966377,-1.573752,"the merchants tavern, 1 St. Peters Wharf, , Newcastle upon Tyne, Tyne & Wear, NE6 1TW"
54.970149,-1.581302,"APOCALYPSE COW NEWCASTLE LTD, Ghetto Golf, The Clay Shed, Hoults Yard, Walker Road, Newcastle, , NE6 2HL"
54.973941,-1.553035,"The Snack Box, 121 Scrogg Road, , Newcastle upon Tyne, Tyne & Wear, NE6 2PR"
54.98083,-1.561724,"The Valentia, The Valentia, Fossway , , NEwcastle upon Tyne, , NE6 4AN"
54.985684,-1.562795,"InflateSpace / Clip N Climb Newcastle, Benfield Business Park Benfield Roa, , Newcastle upon Tyne, Tyne & Wear, NE6 4NQ"
54.985684,-1.562795,"Fun Shack Newcastle, Unit A3 Benfield Business Park, Benfield Road, Newcastle, , NE6 4NQ"
54.985239,-1.576209,"Newcastle shawarma , 178 Chillingham Road, , Newcastle upon Tyne, Tyne & Wear, NE6 5BU"
54.986524,-1.573477,"Vincenzos Food Ltd, 16 Addycombe Terrace, , Newcastle upon Tyne, Tyne & Wear, NE6 5DP"
54.983955,-1.581598,"Khans, 178 Heaton Road, , Newcastle upon Tyne, Tyne & Wear, NE6 5HP"
54.983955,-1.581598,"Boquerones Tapas and Cocktails , 194a, Heaton Road, Newcastle upon Tyne, Tyne & Wear, NE6 5HP"
54.983955,-1.581598,"Butterfly Cabinet, Butterfly Cabinet, 200 Heaton Road, Newcastle upon Tyne, Tyne & Wear, NE6 5HP"
54.986096,-1.577044,"Cream Curls, 195 Chillingham Road, , Newcastle upon Tyne, Tyne & Wear, NE6 5LH"
54.987158,-1.577502,"The Naked Deli, 231 Chillingham Road, , Newcastle upon Tyne, Tyne & Wear, NE6 5LJ"
54.988058,-1.577852,"L'ULIVO, 245 Chillingham Road, , Newcastle upon Tyne, Tyne & Wear, NE6 5LL"
54.988058,-1.577852,"Restaurant Bianco Nero , Floor 1, 269 Chillingham Road, Newcastle upon Tyne, Tyne & Wear, NE6 5LL"
54.986112,-1.576591,"206 Sushi & Sliders, 206 Chillingham Road, , Newcastle upon Tyne, Tyne & Wear, NE6 5LN"
54.98712,-1.576971,"Brew & Bite , 216 Chillingham Road, , Newcastle upon Tyne, Tyne & Wear, NE6 5LP"
54.988038,-1.577289,"Pizza daddy, 248 Chillingham Road, , Newcastle upon Tyne, Tyne & Wear, NE6 5LQ"
54.991205,-1.578444,"Komal Restaurant, 404 Chillingham Road, , Newcastle upon Tyne, Tyne & Wear, NE6 5QX"
54.990544,-1.57695,"The Northumberland Hussar, Sackville Road, , Newcastle upon Tyne, Tyne & Wear, NE6 5SY"
54.993458,-1.565446,"The Naked Foodie Ltd, 101 Benfield Road, , Newcastle upon Tyne, Tyne & Wear, NE6 5XA"
54.983414,-1.576025,"cafe spice, 111 Chillingham Road, , Newcastle upon Tyne, Tyne & Wear, NE6 5XL"
55.169005,-1.69137,"Healthy Prep Kitchen, 37a, Newgate Street, Morpeth, Northumberland, NE61 1AT"
55.169005,-1.69137,"cafe vault, First Floor, 29 Newgate Street, Morpeth, Northumberland, NE61 1AT"
55.168405,-1.690515,"Nadon Thai Morpeth, 12a, Newgate Street, Morpeth, Northumberland, NE61 1BA"
55.168405,-1.690515,"Harry's Coffee Bar, 20 Newgate Street, , Morpeth, Northumberland, NE61 1BA"
55.168405,-1.690515,"Harrys Coffee bar, 20 Newgate Street, , Morpeth, Northumberland, NE61 1BA"
55.169081,-1.691012,"Cafe des Amis, 52 Newgate Street, , Morpeth, Northumberland, NE61 1BE"
55.167757,-1.690127,"Gianni's, 6 Market Place, , Morpeth, Northumberland, NE61 1HG"
55.167617,-1.6914,"Manzil Tandoori Restaurant, Manzil, 2B Oldgate, Morpeth, Northumberland, NE61 1LX"
55.167198,-1.68908,"G. RUTHERFORD & CO. LIMITED, 10-16, Bridge Street, Morpeth, Northumberland, NE61 1NJ"
55.167145,-1.68801,"LOLLO ROSSO ITALIA, 40 Bridge Street, , Morpeth, Northumberland, NE61 1NL"
55.167998,-1.689356,"CENTRAL BEAN MORPETH, 21 Sanderson Arcade, , Morpeth, Northumberland, NE61 1NS"
55.167998,-1.689356,"Barluga Morpeth, 3d, Sanderson Arcade, Morpeth, Northumberland, NE61 1NS"
55.167998,-1.689356,"The Morpeth Larder, 1a, Sanderson Arcade, Morpeth, Northumberland, NE61 1NS"
55.167557,-1.68903,"Tandoor Mahal Restaurant, 17 Bridge Street, , Morpeth, Northumberland, NE61 1NT"
55.167371,-1.688275,"The Black Bull, 47 Bridge Street, , Morpeth, Northumberland, NE61 1PE"
55.166798,-1.687325,"The Chantry Tea Rooms, 9 Chantry Place, , Morpeth, Northumberland, NE61 1PJ"
55.167183,-1.686867,"ephesus restaurant, 71 brige st, , morpeth, northumberland, NE61 1PQ"
55.167183,-1.686867,"The Auction House, 63 Bridge Street, , Morpeth, Northumberland, NE61 1PQ"
55.167183,-1.686867,"Nikos Greek Taberna, 61 Bridge Street, , Morpeth, Northumberland, NE61 1PQ"
55.167068,-1.690933,"Primo Piano  Partnership, 7 New Market, , Morpeth, Northumberland, NE61 1PS"
55.169883,-1.695731,"Mulan Restaurant, Newminster Lodge, High Stanners, Morpeth, Nortthumberland, NE61 1QU"
55.16121,-1.691261,"Sun Inn Morpeth , Sun Inn, High Church , Morpeth , Northumberland , NE61 2QT"
55.159252,-1.677857,"Stobhill bait, 35 Shields Road, , Morpeth, Northumberland, NE61 2SA"
55.191902,-1.65791,"Longhirst Hall Golf Club, Longhirst Hall Golf Club, Longhirst Hall, Morpeth, , NE61 3LL"
55.165603,-1.815626,"The Dyke Neuk Inn Ltd, Dyke Neuk, , Morpeth, Northumberland, NE61 3SL"
55.127775,-1.799961,"The Beresford Arms, Beresford Arms, , Whalton, Northumberland, NE61 3UZ"
55.257699,-1.600881,"The Widdrington Inn, Residential Premises,The Widdringto, Regency Close, Widdrington Village, Northumberland, NE61 5DY"
55.130658,-1.70224,"The Whitehouse Centre Ltd, Whitehouse Farm Centre, Stannington, Morpeth, Northumberland, NE61 6AW"
55.125448,-1.67159,"Char Mausum ltd, Station Road End, , Stannington, Northumberland, NE61 6DR"
55.127561,-1.665567,"MOORHOUSE FARM, 21 Station Road, Stannington, Morpeth, Northumberland, NE61 6DX"
55.205994,-1.593996,"Bluesky Centre, Northumberland Blue Sky Equestrian, , Longhirst, Northumberland, NE61 6PY"
55.163217,-1.588813,"The Cherry Tree Bar & Grill, Cherry Tree Bar & Grill, Riversdale Avenue, Choppington, Northumberland, NE62 5JZ"
55.163146,-1.602783,"Anglers Arms, Sheepwash Bank, , Choppington, Northumberland, NE62 5NB"
55.16441,-1.578706,"The Half Moon Inn, The Half Moon Inn, Half Moon Street, Choppington, Northumberland, NE62 5TT"
55.182786,-1.568572,"The Station Lounge , Basement, Bellway House, Woodhorn Road, Ashington, Northumberland, NE63 0AE"
55.182639,-1.569046,"The Chip Inn, 9 North Seaton Road, , Ashington, Northumberland, NE63 0AF"
55.181303,-1.568572,"BETTINI'S, 17 North Seaton Road, , Ashington, Northumberland, NE63 0AG"
55.181303,-1.568572,"Moo moos steakhouse, The Conchie, 79-85 North Seaton Road, Ashington, Northumberland, NE63 0AG"
55.182468,-1.567633,"Crossroads Coffee Shop, 4 Myrtle Street, , Ashington, Northumberland, NE63 0AP"
55.182043,-1.56822,"Masala Tandoori Ltd, 13 Laburnum Terrace, , Ashington, Northumberland, NE63 0XX"
55.167527,-1.549853,"Foxcover, Foxcover, Freeman way, Ashington, Northumberland, NE63 0YB"
55.167527,-1.549853,"WANSBECK GARDEN CENTRE, Freeman Way, , Ashington, Northumberland, NE63 0YB"
55.182465,-1.584719,"The Portland, 150 Station Road, , Ashington, Northumberland, NE63 8HG"
55.172684,-1.577254,"The Block and Tackle, Blackthorn Way, , Ashington, Northumberland, NE63 8NW"
55.185314,-1.590233,"KFC, Morpeth Road, , Ashington, Northumberland, NE63 8QG"
55.18431,-1.546602,"Woodhorn Restaurant, Woodhorn Lane, , Ashington, Northumberland, NE63 9JJ"
55.18431,-1.546602,"Coffee Central, Woodhorn Lane, , Ashington, Northumberland, NE63 9JJ"
55.18431,-1.546602,"NVS Wansbeck General Hospital, Woodhorn Road, , Ashington, Northumberland, NE63 9JJ"
55.183446,-1.571142,"Stu & Martin - The Bistro, 21 Station Road, , Ashington, Northumberland, NE63 9UZ"
55.18534,-1.50414,"Newbiggin by the Sea Maritime Centre, Church Point, , Newbiggin-by-the-Sea, Northumberland, NE64 6DB"
55.18165,-1.516199,"Willow Tree cafe and event catering , 42 Gibson Street, , Newbiggin-by-the-Sea, Northumberland, NE64 6UW"
55.33549,-1.57989,"The Old Boat house, the Olb Boat House, Leazes st, Amble, Northumberland, NE65 0AA"
55.336001,-1.579491,"Lilly's Landing Limited, Broomhill Quay, , Amble, Northumberland, NE65 0AB"
55.336001,-1.579491,"Quayside Chippy Limited, Leazes Street, , Amble, Northumberland, NE65 0AB"
55.335985,-1.57659,"The Fish Shack, The Fish Shack, Harbour Road, Amble, Northumberland, NE65 0AP"
55.333432,-1.585035,"The dock hotel , 27 Queen Street, Amble, Morpeth, Northumberland, NE65 0BX"
55.333171,-1.584912,"1911 Coffee Co. Ltd., 28-30, Queen Street, Morpeth, Northumberland, NE65 0BZ"
55.333171,-1.584912,"Kayleigh’s Kitchen, 18 Queen Street, Amble, Morpeth, Northumberland, NE65 0BZ"
55.33394,-1.583753,"Coquet Tea Rooms, 51-53, Queen Street, Morpeth, Northumberland, NE65 0DA"
55.33394,-1.583753,"Dollys & Daisys, 73 Queen Street, Amble, Morpeth, Northumberland, NE65 0DA"
55.334351,-1.582219,"The Cock & Bull, 108 Queen Street, Amble, Morpeth, Northumberland, NE65 0DQ"
55.334196,-1.590292,"Artique Cafe, Artique Cafe, Marina Arms, The Wynd, Amble, Northumberland, NE65 0HH"
55.332705,-1.587786,"Rossini Restaurant Amble, 47-49, High Street, Morpeth, Northumberland, NE65 0LE"
55.327405,-1.585666,"Circa, Marks Bridge, , Amble, Northumberland, NE65 0NB"
55.329717,-1.583182,"Castle Mania, Castle Mania, Coquet Enterprise Park, Amble, Northumberland, NE65 0PE"
55.329717,-1.583182,"The Amble Inn, The Amble Inn, Percy Drive, Amble, Northumberland, NE65 0PE"
55.331116,-1.566759,"The Old Storehouse, The Old Storehouse, Links Road, Amble, Northumberland, NE65 0SD"
55.346295,-1.611061,"The Sun Hotel , The Sun Hotel, 6 Castke Terrace, Warkworth, Northumberland, NE65 0UP"
55.348552,-1.61137,"Bertrams, 19 Bridge Street, Warkworth, Morpeth, Northumberland, NE65 0XB"
55.358783,-2.11458,"CLENNELL hALL cOUNTRY hOUSE, clennell hall country house, alwinton, MORPETH, NORTHUMBERLAND, NE65 7BG"
55.3509,-2.126969,"Rose and thistle inn, Residential Flat, Rose and Thistle, , Alwinton, Northumberland, NE65 7BQ"
55.336363,-2.105845,"The Star Inn - Harbottle, Residential Flat, Star Inn, , Harbottle, Northumberland, NE65 7DG"
55.314452,-1.957363,"The Three Wheat Heads, Three Wheat Heads, Main Street, Thropton, Northumberland, NE65 7LR"
55.308113,-1.905405,"The Coquetvale Hotel, The Coquetvale Hotel, Station Road, Rothbury, Northumberland, NE65 7QH"
55.308909,-1.909274,"Tomlinsons Cafe, Tomlinsonscafe , Haw Hill, Rothbury , Northumberland , NE65 7RQ"
55.310003,-1.90904,"LA MENSA, Fanciulli Cafe, Lindsay House, , Morpeth, Northumberland, NE65 7SL"
55.309745,-1.912916,"The Turks Head, The Turks Head, High Street, Rothbury, Northumberland, NE65 7TE"
55.309745,-1.912916,"THE VALE CAFE, Coquetdale House, High Street, Morpeth, Northumberland, NE65 7TE"
55.309477,-1.911337,"Newcastle House Hotel, Newcastle House Hotel, Front Street, Rothbury, Northumberland, NE65 7UT"
